[{
  "_id": {
    "$oid": "69882c2570b1561c98e899a1"
  },
  "name": "Kathmandu Motorcycle Servicing Workshop (Pushpa Narayan)",
  "lat": 27.7103547,
  "lng": 85.3240085,
  "district": null,
  "city": null,
  "source": "OpenStreetMap",
  "osmId": 765002057,
  "tags": {
    "email": "kmcs.workshop@gmail.com",
    "name": "Kathmandu Motorcycle Servicing Workshop (Pushpa Narayan)",
    "opening_hours": "Su-Fr 09:00-17:00",
    "phone": "014422857",
    "shop": "car_repair",
    "transportation": "car_repair",
    "website": "https://www.facebook.com/KathmanduMotorcycleServicingWorkshop/"
  }
},
{
  "_id": {
    "$oid": "69882c2570b1561c98e899a2"
  },
  "name": "Mahalaxmi Motorcycle Workshop",
  "lat": 27.6676464,
  "lng": 85.3210418,
  "district": null,
  "city": null,
  "source": "OpenStreetMap",
  "osmId": 1342135425,
  "tags": {
    "description": "Motorbike Workshop",
    "name": "Mahalaxmi Motorcycle Workshop",
    "opening_hours": "Su-Fr 9:00-19:00",
    "phone": "15545829",
    "shop": "car_repair"
  }
},
{
  "_id": {
    "$oid": "69882c2570b1561c98e899a3"
  },
  "name": "TATA (Sipradi)",
  "lat": 27.696449,
  "lng": 85.2942682,
  "district": null,
  "city": null,
  "source": "OpenStreetMap",
  "osmId": 1496676814,
  "tags": {
    "name": "TATA (Sipradi)",
    "shop": "car_repair"
  }
},
{
  "_id": {
    "$oid": "69882c2570b1561c98e899a4"
  },
  "name": "Bablu Electric TY",
  "lat": 27.6300492,
  "lng": 84.4947171,
  "district": null,
  "city": null,
  "source": "OpenStreetMap",
  "osmId": 1537553854,
  "tags": {
    "name": "Bablu Electric TY",
    "shop": "car_repair"
  }
},
{
  "_id": {
    "$oid": "69882c2570b1561c98e899a5"
  },
  "name": "Repair",
  "lat": 28.7805637,
  "lng": 83.721301,
  "district": null,
  "city": null,
  "source": "OpenStreetMap",
  "osmId": 1548806715,
  "tags": {
    "name": "Repair",
    "shop": "car_repair"
  }
},
{
  "_id": {
    "$oid": "69882c2570b1561c98e899a6"
  },
  "name": "Hyundai",
  "lat": 27.6323186,
  "lng": 85.5188886,
  "district": null,
  "city": null,
  "source": "OpenStreetMap",
  "osmId": 1833834801,
  "tags": {
    "brand": "Hyundai",
    "brand:wikidata": "Q55931",
    "name": "Hyundai",
    "shop": "car_repair"
  }
},
{
  "_id": {
    "$oid": "69882c2570b1561c98e899a7"
  },
  "name": "Unnamed Garage",
  "lat": 27.6856263,
  "lng": 85.318181,
  "district": null,
  "city": null,
  "source": "OpenStreetMap",
  "osmId": 1892667886,
  "tags": {
    "shop": "car_repair"
  }
},
{
  "_id": {
    "$oid": "69882c2570b1561c98e899a8"
  },
  "name": "Unnamed Garage",
  "lat": 27.6755513,
  "lng": 85.3252091,
  "district": null,
  "city": null,
  "source": "OpenStreetMap",
  "osmId": 1904258739,
  "tags": {
    "shop": "car_repair"
  }
},
{
  "_id": {
    "$oid": "69882c2570b1561c98e899a9"
  },
  "name": "New Motorcycle Workshop",
  "lat": 27.6702663,
  "lng": 85.2707707,
  "district": null,
  "city": null,
  "source": "OpenStreetMap",
  "osmId": 1916811266,
  "tags": {
    "name": "New Motorcycle Workshop",
    "shop": "car_repair"
  }
},
{
  "_id": {
    "$oid": "69882c2570b1561c98e899aa"
  },
  "name": "BMW Auto Centre",
  "lat": 27.6681647,
  "lng": 85.3164582,
  "district": null,
  "city": null,
  "source": "OpenStreetMap",
  "osmId": 1937684812,
  "tags": {
    "name": "BMW Auto Centre",
    "repair": "cars",
    "shop": "car_repair"
  }
},
{
  "_id": {
    "$oid": "69882c2570b1561c98e899ab"
  },
  "name": "Nagpokhari Tyre Reparing Center",
  "lat": 27.7137706,
  "lng": 85.3240247,
  "district": null,
  "city": null,
  "source": "OpenStreetMap",
  "osmId": 1957113659,
  "tags": {
    "name": "Nagpokhari Tyre Reparing Center",
    "shop": "car_repair"
  }
},
{
  "_id": {
    "$oid": "69882c2570b1561c98e899ac"
  },
  "name": "Barahkshetra Auto Servicing",
  "lat": 27.7180453,
  "lng": 85.3342056,
  "district": null,
  "city": null,
  "source": "OpenStreetMap",
  "osmId": 1962367507,
  "tags": {
    "name": "Barahkshetra Auto Servicing",
    "shop": "car_repair"
  }
},
{
  "_id": {
    "$oid": "69882c2570b1561c98e899ad"
  },
  "name": "Karya Binayak Auto Workshop",
  "lat": 27.7309476,
  "lng": 85.307525,
  "district": null,
  "city": null,
  "source": "OpenStreetMap",
  "osmId": 1980624503,
  "tags": {
    "name": "Karya Binayak Auto Workshop",
    "shop": "car_repair"
  }
},
{
  "_id": {
    "$oid": "69882c2570b1561c98e899ae"
  },
  "name": "Dilip Service Center",
  "lat": 27.6852753,
  "lng": 85.3444989,
  "district": null,
  "city": null,
  "source": "OpenStreetMap",
  "osmId": 1989508632,
  "tags": {
    "mobile": "9841226041",
    "name": "Dilip Service Center",
    "shop": "car_repair"
  }
},
{
  "_id": {
    "$oid": "69882c2570b1561c98e899af"
  },
  "name": "Unnamed Garage",
  "lat": 27.6737587,
  "lng": 85.3722721,
  "district": null,
  "city": null,
  "source": "OpenStreetMap",
  "osmId": 1990674664,
  "tags": {
    "shop": "car_repair"
  }
},
{
  "_id": {
    "$oid": "69882c2570b1561c98e899b0"
  },
  "name": "Unnamed Garage",
  "lat": 27.6981316,
  "lng": 85.3416803,
  "district": null,
  "city": null,
  "source": "OpenStreetMap",
  "osmId": 2028653932,
  "tags": {
    "shop": "car_repair"
  }
},
{
  "_id": {
    "$oid": "69882c2570b1561c98e899b1"
  },
  "name": "Unnamed Garage",
  "lat": 27.7002746,
  "lng": 85.3416823,
  "district": null,
  "city": null,
  "source": "OpenStreetMap",
  "osmId": 2028654284,
  "tags": {
    "shop": "car_repair"
  }
},
{
  "_id": {
    "$oid": "69882c2570b1561c98e899b2"
  },
  "name": "Unique Auto Center",
  "lat": 27.6934812,
  "lng": 85.3325062,
  "district": null,
  "city": null,
  "source": "OpenStreetMap",
  "osmId": 2031401963,
  "tags": {
    "building": "yes",
    "name": "Unique Auto Center",
    "phone": "014462766",
    "shop": "car_repair"
  }
},
{
  "_id": {
    "$oid": "69882c2570b1561c98e899b3"
  },
  "name": "Kalika Mai Tyre Puncture",
  "lat": 27.7216239,
  "lng": 85.3278218,
  "district": null,
  "city": null,
  "source": "OpenStreetMap",
  "osmId": 2074306361,
  "tags": {
    "name": "Kalika Mai Tyre Puncture",
    "shop": "car_repair"
  }
},
{
  "_id": {
    "$oid": "69882c2570b1561c98e899b4"
  },
  "name": "Basundhara Auto Works",
  "lat": 27.7400904,
  "lng": 85.3290606,
  "district": null,
  "city": null,
  "source": "OpenStreetMap",
  "osmId": 2077194390,
  "tags": {
    "name": "Basundhara Auto Works",
    "shop": "car_repair"
  }
},
{
  "_id": {
    "$oid": "69882c2570b1561c98e899b5"
  },
  "name": "Bleeze Auto Servicing Center",
  "lat": 27.7394687,
  "lng": 85.3280673,
  "district": null,
  "city": null,
  "source": "OpenStreetMap",
  "osmId": 2078261850,
  "tags": {
    "name": "Bleeze Auto Servicing Center",
    "shop": "car_repair"
  }
},
{
  "_id": {
    "$oid": "69882c2570b1561c98e899b6"
  },
  "name": "R.K. Automobile",
  "lat": 27.7354726,
  "lng": 85.3213423,
  "district": null,
  "city": null,
  "source": "OpenStreetMap",
  "osmId": 2079575205,
  "tags": {
    "name": "R.K. Automobile",
    "shop": "car_repair"
  }
},
{
  "_id": {
    "$oid": "69882c2570b1561c98e899b7"
  },
  "name": "Valley Top Auto Workshop",
  "lat": 27.7351557,
  "lng": 85.3205748,
  "district": null,
  "city": null,
  "source": "OpenStreetMap",
  "osmId": 2079575206,
  "tags": {
    "name": "Valley Top Auto Workshop",
    "shop": "car_repair"
  }
},
{
  "_id": {
    "$oid": "69882c2570b1561c98e899b8"
  },
  "name": "Shree Bhatbhateni Auto Works",
  "lat": 27.7182417,
  "lng": 85.3392032,
  "district": null,
  "city": null,
  "source": "OpenStreetMap",
  "osmId": 2082997617,
  "tags": {
    "brand": "Yamaha",
    "name": "Shree Bhatbhateni Auto Works",
    "shop": "car_repair"
  }
},
{
  "_id": {
    "$oid": "69882c2570b1561c98e899b9"
  },
  "name": "Sudip Tyre Repairing Centre",
  "lat": 27.7197866,
  "lng": 85.3311565,
  "district": null,
  "city": null,
  "source": "OpenStreetMap",
  "osmId": 2084138458,
  "tags": {
    "name": "Sudip Tyre Repairing Centre",
    "shop": "car_repair"
  }
},
{
  "_id": {
    "$oid": "69882c2570b1561c98e899ba"
  },
  "name": "Dharmendra Parts Pasal",
  "lat": 27.7186969,
  "lng": 85.333699,
  "district": null,
  "city": null,
  "source": "OpenStreetMap",
  "osmId": 2084372305,
  "tags": {
    "name": "Dharmendra Parts Pasal",
    "shop": "car_parts"
  }
},
{
  "_id": {
    "$oid": "69882c2570b1561c98e899bb"
  },
  "name": "Krishna Transport Service Pvt. Ltd.",
  "lat": 27.7230541,
  "lng": 85.3270975,
  "district": null,
  "city": null,
  "source": "OpenStreetMap",
  "osmId": 2086891064,
  "tags": {
    "name": "Krishna Transport Service Pvt. Ltd.",
    "shop": "car_repair"
  }
},
{
  "_id": {
    "$oid": "69882c2570b1561c98e899bc"
  },
  "name": "Nil Saraswati Auto Workshop",
  "lat": 27.7206833,
  "lng": 85.32389,
  "district": null,
  "city": null,
  "source": "OpenStreetMap",
  "osmId": 2090665076,
  "tags": {
    "name": "Nil Saraswati Auto Workshop",
    "shop": "car_repair"
  }
},
{
  "_id": {
    "$oid": "69882c2570b1561c98e899bd"
  },
  "name": "Busy motorcycle shop",
  "lat": 27.7203401,
  "lng": 85.3238455,
  "district": null,
  "city": null,
  "source": "OpenStreetMap",
  "osmId": 2090665082,
  "tags": {
    "name": "Busy motorcycle shop",
    "shop": "car_repair"
  }
},
{
  "_id": {
    "$oid": "69882c2570b1561c98e899be"
  },
  "name": "Unnamed Garage",
  "lat": 27.721992,
  "lng": 85.3284699,
  "district": null,
  "city": null,
  "source": "OpenStreetMap",
  "osmId": 2090691206,
  "tags": {
    "shop": "car_repair"
  }
},
{
  "_id": {
    "$oid": "69882c2570b1561c98e899bf"
  },
  "name": "Unnamed Garage",
  "lat": 27.7176898,
  "lng": 85.3257267,
  "district": null,
  "city": null,
  "source": "OpenStreetMap",
  "osmId": 2090732556,
  "tags": {
    "shop": "car_repair"
  }
},
{
  "_id": {
    "$oid": "69882c2570b1561c98e899c0"
  },
  "name": "Unnamed Garage",
  "lat": 27.7177446,
  "lng": 85.3255276,
  "district": null,
  "city": null,
  "source": "OpenStreetMap",
  "osmId": 2090732558,
  "tags": {
    "shop": "car_repair"
  }
},
{
  "_id": {
    "$oid": "69882c2570b1561c98e899c1"
  },
  "name": "Car Repair Center",
  "lat": 27.7176902,
  "lng": 85.3269141,
  "district": null,
  "city": null,
  "source": "OpenStreetMap",
  "osmId": 2091834007,
  "tags": {
    "name": "Car Repair Center",
    "shop": "car_repair"
  }
},
{
  "_id": {
    "$oid": "69882c2570b1561c98e899c2"
  },
  "name": "Unnamed Garage",
  "lat": 27.7152622,
  "lng": 85.3316819,
  "district": null,
  "city": null,
  "source": "OpenStreetMap",
  "osmId": 2094300032,
  "tags": {
    "shop": "car_parts"
  }
},
{
  "_id": {
    "$oid": "69882c2570b1561c98e899c3"
  },
  "name": "CAR REPAIRING CENTER",
  "lat": 27.6859121,
  "lng": 85.2934095,
  "district": null,
  "city": null,
  "source": "OpenStreetMap",
  "osmId": 2122365570,
  "tags": {
    "name": "CAR REPAIRING CENTER",
    "shop": "car_repair"
  }
},
{
  "_id": {
    "$oid": "69882c2570b1561c98e899c4"
  },
  "name": "CAR REPAIRING CENTER",
  "lat": 27.6872136,
  "lng": 85.290502,
  "district": null,
  "city": null,
  "source": "OpenStreetMap",
  "osmId": 2122365693,
  "tags": {
    "name": "CAR REPAIRING CENTER",
    "shop": "car_repair"
  }
},
{
  "_id": {
    "$oid": "69882c2570b1561c98e899c5"
  },
  "name": "siddhi ganesh auto workers",
  "lat": 27.7187721,
  "lng": 85.307834,
  "district": null,
  "city": null,
  "source": "OpenStreetMap",
  "osmId": 2127170415,
  "tags": {
    "name": "siddhi ganesh auto workers",
    "shop": "car_repair"
  }
},
{
  "_id": {
    "$oid": "69882c2570b1561c98e899c6"
  },
  "name": "Pandey and sons auto collection",
  "lat": 27.71727,
  "lng": 85.3089199,
  "district": null,
  "city": null,
  "source": "OpenStreetMap",
  "osmId": 2127180610,
  "tags": {
    "name": "Pandey and sons auto collection",
    "shop": "car_repair"
  }
},
{
  "_id": {
    "$oid": "69882c2570b1561c98e899c7"
  },
  "name": "Unnamed Garage",
  "lat": 27.7160805,
  "lng": 85.3074859,
  "district": null,
  "city": null,
  "source": "OpenStreetMap",
  "osmId": 2127184411,
  "tags": {
    "shop": "car_repair"
  }
},
{
  "_id": {
    "$oid": "69882c2570b1561c98e899c8"
  },
  "name": "Unnamed Garage",
  "lat": 27.5890701,
  "lng": 85.5146413,
  "district": null,
  "city": null,
  "source": "OpenStreetMap",
  "osmId": {
    "$numberLong": "2153223712"
  },
  "tags": {
    "shop": "car_repair"
  }
},
{
  "_id": {
    "$oid": "69882c2570b1561c98e899c9"
  },
  "name": "Unnamed Garage",
  "lat": 27.7411304,
  "lng": 85.3419467,
  "district": null,
  "city": null,
  "source": "OpenStreetMap",
  "osmId": {
    "$numberLong": "2165179879"
  },
  "tags": {
    "shop": "car_repair"
  }
},
{
  "_id": {
    "$oid": "69882c2570b1561c98e899ca"
  },
  "name": "Unnamed Garage",
  "lat": 27.6951707,
  "lng": 85.3405276,
  "district": null,
  "city": null,
  "source": "OpenStreetMap",
  "osmId": {
    "$numberLong": "2174589426"
  },
  "tags": {
    "shop": "car_repair"
  }
},
{
  "_id": {
    "$oid": "69882c2570b1561c98e899cb"
  },
  "name": "Honda Service Centre",
  "lat": 27.6910002,
  "lng": 84.4270438,
  "district": null,
  "city": null,
  "source": "OpenStreetMap",
  "osmId": {
    "$numberLong": "2456717919"
  },
  "tags": {
    "name": "Honda Service Centre",
    "shop": "car_repair"
  }
},
{
  "_id": {
    "$oid": "69882c2570b1561c98e899cc"
  },
  "name": "Unnamed Garage",
  "lat": 27.6912567,
  "lng": 84.4265878,
  "district": null,
  "city": null,
  "source": "OpenStreetMap",
  "osmId": {
    "$numberLong": "2456718316"
  },
  "tags": {
    "shop": "car_repair"
  }
},
{
  "_id": {
    "$oid": "69882c2570b1561c98e899cd"
  },
  "name": "Unnamed Garage",
  "lat": 27.6908737,
  "lng": 84.426859,
  "district": null,
  "city": null,
  "source": "OpenStreetMap",
  "osmId": {
    "$numberLong": "2456718901"
  },
  "tags": {
    "shop": "car_repair"
  }
},
{
  "_id": {
    "$oid": "69882c2570b1561c98e899ce"
  },
  "name": "Parts Available",
  "lat": 27.6917991,
  "lng": 84.4253904,
  "district": null,
  "city": null,
  "source": "OpenStreetMap",
  "osmId": {
    "$numberLong": "2456728858"
  },
  "tags": {
    "name": "Parts Available",
    "shop": "car_parts"
  }
},
{
  "_id": {
    "$oid": "69882c2570b1561c98e899cf"
  },
  "name": "Shyam Motorcycle Workshop",
  "lat": 27.6541306,
  "lng": 85.3052497,
  "district": null,
  "city": null,
  "source": "OpenStreetMap",
  "osmId": {
    "$numberLong": "2516833607"
  },
  "tags": {
    "name": "Shyam Motorcycle Workshop",
    "shop": "car_repair"
  }
},
{
  "_id": {
    "$oid": "69882c2570b1561c98e899d0"
  },
  "name": "Unnamed Garage",
  "lat": 27.6203983,
  "lng": 86.0784383,
  "district": null,
  "city": null,
  "source": "OpenStreetMap",
  "osmId": {
    "$numberLong": "2662694376"
  },
  "tags": {
    "shop": "car_repair"
  }
},
{
  "_id": {
    "$oid": "69882c2570b1561c98e899d1"
  },
  "name": "Priyanka Auto Works",
  "lat": 27.7280348,
  "lng": 85.3437398,
  "district": null,
  "city": null,
  "source": "OpenStreetMap",
  "osmId": {
    "$numberLong": "2699879968"
  },
  "tags": {
    "name": "Priyanka Auto Works",
    "shop": "car_repair"
  }
},
{
  "_id": {
    "$oid": "69882c2570b1561c98e899d2"
  },
  "name": "Unnamed Garage",
  "lat": 27.7298445,
  "lng": 85.3442654,
  "district": null,
  "city": null,
  "source": "OpenStreetMap",
  "osmId": {
    "$numberLong": "2699886995"
  },
  "tags": {
    "shop": "car_repair"
  }
},
{
  "_id": {
    "$oid": "69882c2570b1561c98e899d3"
  },
  "name": "MRF Tyre Showroom",
  "lat": 26.8288509,
  "lng": 86.2554895,
  "district": null,
  "city": null,
  "source": "OpenStreetMap",
  "osmId": {
    "$numberLong": "3054927711"
  },
  "tags": {
    "name": "MRF Tyre Showroom",
    "shop": "car_parts"
  }
},
{
  "_id": {
    "$oid": "69882c2570b1561c98e899d4"
  },
  "name": "Suzuki service centre",
  "lat": 27.713266,
  "lng": 85.3480884,
  "district": null,
  "city": null,
  "source": "OpenStreetMap",
  "osmId": {
    "$numberLong": "3074599853"
  },
  "tags": {
    "name": "Suzuki service centre",
    "shop": "car_repair"
  }
},
{
  "_id": {
    "$oid": "69882c2570b1561c98e899d5"
  },
  "name": "Auto works and services",
  "lat": 27.7084976,
  "lng": 85.3374246,
  "district": null,
  "city": null,
  "source": "OpenStreetMap",
  "osmId": {
    "$numberLong": "3074604292"
  },
  "tags": {
    "name": "Auto works and services",
    "shop": "car_parts"
  }
},
{
  "_id": {
    "$oid": "69882c2570b1561c98e899d6"
  },
  "name": "Valley Motorcycle Enterprise",
  "lat": 27.7080911,
  "lng": 85.339268,
  "district": null,
  "city": null,
  "source": "OpenStreetMap",
  "osmId": {
    "$numberLong": "3074604309"
  },
  "tags": {
    "name": "Valley Motorcycle Enterprise",
    "shop": "car_parts"
  }
},
{
  "_id": {
    "$oid": "69882c2570b1561c98e899d7"
  },
  "name": "Unnamed Garage",
  "lat": 27.7083109,
  "lng": 85.3395292,
  "district": null,
  "city": null,
  "source": "OpenStreetMap",
  "osmId": {
    "$numberLong": "3074604322"
  },
  "tags": {
    "shop": "car_parts"
  }
},
{
  "_id": {
    "$oid": "69882c2570b1561c98e899d8"
  },
  "name": "kalanki garage",
  "lat": 27.6927142,
  "lng": 85.2772286,
  "district": null,
  "city": null,
  "source": "OpenStreetMap",
  "osmId": {
    "$numberLong": "3079586716"
  },
  "tags": {
    "name": "kalanki garage",
    "shop": "car_parts"
  }
},
{
  "_id": {
    "$oid": "69882c2570b1561c98e899d9"
  },
  "name": "Unnamed Garage",
  "lat": 27.6907461,
  "lng": 85.3911761,
  "district": null,
  "city": null,
  "source": "OpenStreetMap",
  "osmId": {
    "$numberLong": "3081211150"
  },
  "tags": {
    "shop": "car_parts"
  }
},
{
  "_id": {
    "$oid": "69882c2570b1561c98e899da"
  },
  "name": "Unnamed Garage",
  "lat": 27.6912436,
  "lng": 85.391474,
  "district": null,
  "city": null,
  "source": "OpenStreetMap",
  "osmId": {
    "$numberLong": "3081211720"
  },
  "tags": {
    "shop": "car_parts"
  }
},
{
  "_id": {
    "$oid": "69882c2570b1561c98e899db"
  },
  "name": "Workshop",
  "lat": 27.6539541,
  "lng": 85.3051379,
  "district": null,
  "city": null,
  "source": "OpenStreetMap",
  "osmId": {
    "$numberLong": "3134632751"
  },
  "tags": {
    "name": "Workshop",
    "shop": "car_repair"
  }
},
{
  "_id": {
    "$oid": "69882c2570b1561c98e899dc"
  },
  "name": "Unnamed Garage",
  "lat": 26.475642,
  "lng": 87.2761038,
  "district": null,
  "city": null,
  "source": "OpenStreetMap",
  "osmId": {
    "$numberLong": "3166420830"
  },
  "tags": {
    "shop": "car_parts"
  }
},
{
  "_id": {
    "$oid": "69882c2570b1561c98e899dd"
  },
  "name": "Mahindra Auto Repair Shop",
  "lat": 26.4748635,
  "lng": 87.276031,
  "district": null,
  "city": null,
  "source": "OpenStreetMap",
  "osmId": {
    "$numberLong": "3166431506"
  },
  "tags": {
    "name": "Mahindra Auto Repair Shop",
    "shop": "car_repair"
  }
},
{
  "_id": {
    "$oid": "69882c2570b1561c98e899de"
  },
  "name": "Nandikeswor Motorcycle Workshop",
  "lat": 27.7134665,
  "lng": 85.3252015,
  "district": null,
  "city": null,
  "source": "OpenStreetMap",
  "osmId": {
    "$numberLong": "3184453102"
  },
  "tags": {
    "name": "Nandikeswor Motorcycle Workshop",
    "phone": "9808897499",
    "shop": "car_repair"
  }
},
{
  "_id": {
    "$oid": "69882c2570b1561c98e899df"
  },
  "name": "joshi auto works",
  "lat": 27.6491514,
  "lng": 85.1227701,
  "district": null,
  "city": null,
  "source": "OpenStreetMap",
  "osmId": {
    "$numberLong": "3201188194"
  },
  "tags": {
    "name": "joshi auto works",
    "shop": "car_repair"
  }
},
{
  "_id": {
    "$oid": "69882c2570b1561c98e899e0"
  },
  "name": "B & P auto workshop",
  "lat": 27.6494206,
  "lng": 85.123082,
  "district": null,
  "city": null,
  "source": "OpenStreetMap",
  "osmId": {
    "$numberLong": "3201255912"
  },
  "tags": {
    "name": "B & P auto workshop",
    "operator": "Pradip Bhatta",
    "shop": "car_repair"
  }
},
{
  "_id": {
    "$oid": "69882c2570b1561c98e899e1"
  },
  "name": "sagarmatha workshop",
  "lat": 27.6900544,
  "lng": 84.4270745,
  "district": null,
  "city": null,
  "source": "OpenStreetMap",
  "osmId": {
    "$numberLong": "3348308246"
  },
  "tags": {
    "name": "sagarmatha workshop",
    "shop": "car_repair"
  }
},
{
  "_id": {
    "$oid": "69882c2570b1561c98e899e2"
  },
  "name": "hero showroom",
  "lat": 27.6895474,
  "lng": 84.4272564,
  "district": null,
  "city": null,
  "source": "OpenStreetMap",
  "osmId": {
    "$numberLong": "3348311152"
  },
  "tags": {
    "name": "hero showroom",
    "shop": "car_repair"
  }
},
{
  "_id": {
    "$oid": "69882c2570b1561c98e899e3"
  },
  "name": "chitwan bike service center",
  "lat": 27.6908992,
  "lng": 84.4266155,
  "district": null,
  "city": null,
  "source": "OpenStreetMap",
  "osmId": {
    "$numberLong": "3348311154"
  },
  "tags": {
    "name": "chitwan bike service center",
    "shop": "car_repair"
  }
},
{
  "_id": {
    "$oid": "69882c2570b1561c98e899e4"
  },
  "name": "Chitwan Jack Wash Center",
  "lat": 27.6747986,
  "lng": 84.4315788,
  "district": null,
  "city": null,
  "source": "OpenStreetMap",
  "osmId": {
    "$numberLong": "3392281654"
  },
  "tags": {
    "name": "Chitwan Jack Wash Center",
    "shop": "car_repair"
  }
},
{
  "_id": {
    "$oid": "69882c2570b1561c98e899e5"
  },
  "name": "subika motorcycle workshop",
  "lat": 27.674015,
  "lng": 84.4358573,
  "district": null,
  "city": null,
  "source": "OpenStreetMap",
  "osmId": {
    "$numberLong": "3392360979"
  },
  "tags": {
    "name": "subika motorcycle workshop",
    "shop": "car_repair"
  }
},
{
  "_id": {
    "$oid": "69882c2570b1561c98e899e6"
  },
  "name": "AUTOBACS",
  "lat": 27.6763393,
  "lng": 84.4358072,
  "district": null,
  "city": null,
  "source": "OpenStreetMap",
  "osmId": {
    "$numberLong": "3392364615"
  },
  "tags": {
    "name": "AUTOBACS",
    "shop": "car_parts"
  }
},
{
  "_id": {
    "$oid": "69882c2570b1561c98e899e7"
  },
  "name": "Sapkota AdventureTravels Pvt.Ltd",
  "lat": 28.2059479,
  "lng": 83.9684552,
  "district": null,
  "city": null,
  "source": "OpenStreetMap",
  "osmId": {
    "$numberLong": "3404903246"
  },
  "tags": {
    "name": "Sapkota AdventureTravels Pvt.Ltd",
    "name:ne": "सापकोटा एदभेनचर ट्राभल प्रा.लि.",
    "shop": "car_repair"
  }
},
{
  "_id": {
    "$oid": "69882c2570b1561c98e899e8"
  },
  "name": "Unnamed Garage",
  "lat": 27.5686,
  "lng": 84.7293909,
  "district": null,
  "city": null,
  "source": "OpenStreetMap",
  "osmId": {
    "$numberLong": "3444377998"
  },
  "tags": {
    "shop": "car_repair"
  }
},
{
  "_id": {
    "$oid": "69882c2570b1561c98e899e9"
  },
  "name": "Unnamed Garage",
  "lat": 27.5687221,
  "lng": 84.7291019,
  "district": null,
  "city": null,
  "source": "OpenStreetMap",
  "osmId": {
    "$numberLong": "3444377999"
  },
  "tags": {
    "shop": "car_repair"
  }
},
{
  "_id": {
    "$oid": "69882c2570b1561c98e899ea"
  },
  "name": "Unnamed Garage",
  "lat": 27.5404661,
  "lng": 84.7940731,
  "district": null,
  "city": null,
  "source": "OpenStreetMap",
  "osmId": {
    "$numberLong": "3447893279"
  },
  "tags": {
    "shop": "car_repair"
  }
},
{
  "_id": {
    "$oid": "69882c2570b1561c98e899eb"
  },
  "name": "Purna Auto Parts and Repair Center",
  "lat": 27.6836583,
  "lng": 84.5023646,
  "district": null,
  "city": null,
  "source": "OpenStreetMap",
  "osmId": {
    "$numberLong": "3451531044"
  },
  "tags": {
    "name": "Purna Auto Parts and Repair Center",
    "shop": "car_parts"
  }
},
{
  "_id": {
    "$oid": "69882c2570b1561c98e899ec"
  },
  "name": "Saila Motercycle Workshop",
  "lat": 27.6844473,
  "lng": 84.5023023,
  "district": null,
  "city": null,
  "source": "OpenStreetMap",
  "osmId": {
    "$numberLong": "3451531045"
  },
  "tags": {
    "name": "Saila Motercycle Workshop",
    "shop": "car_repair"
  }
},
{
  "_id": {
    "$oid": "69882c2570b1561c98e899ed"
  },
  "name": "chaudary motorcycle workshop",
  "lat": 27.6842719,
  "lng": 84.5049443,
  "district": null,
  "city": null,
  "source": "OpenStreetMap",
  "osmId": {
    "$numberLong": "3453918943"
  },
  "tags": {
    "name": "chaudary motorcycle workshop",
    "shop": "car_repair"
  }
},
{
  "_id": {
    "$oid": "69882c2570b1561c98e899ee"
  },
  "name": "Exide",
  "lat": 27.7100833,
  "lng": 85.3140225,
  "district": null,
  "city": null,
  "source": "OpenStreetMap",
  "osmId": {
    "$numberLong": "3476434360"
  },
  "tags": {
    "name": "Exide",
    "shop": "car_parts"
  }
},
{
  "_id": {
    "$oid": "69882c2570b1561c98e899ef"
  },
  "name": "bajaj motorbike repair center",
  "lat": 28.0790185,
  "lng": 81.6401352,
  "district": null,
  "city": null,
  "source": "OpenStreetMap",
  "osmId": {
    "$numberLong": "3660248731"
  },
  "tags": {
    "name": "bajaj motorbike repair center",
    "shop": "car_repair"
  }
},
{
  "_id": {
    "$oid": "69882c2570b1561c98e899f0"
  },
  "name": "Unnamed Garage",
  "lat": 28.0748326,
  "lng": 81.6347588,
  "district": null,
  "city": null,
  "source": "OpenStreetMap",
  "osmId": {
    "$numberLong": "3660280170"
  },
  "tags": {
    "shop": "car_repair"
  }
},
{
  "_id": {
    "$oid": "69882c2570b1561c98e899f1"
  },
  "name": "Car Repair",
  "lat": 27.7047156,
  "lng": 84.4070267,
  "district": null,
  "city": null,
  "source": "OpenStreetMap",
  "osmId": {
    "$numberLong": "4017799557"
  },
  "tags": {
    "name": "Car Repair",
    "shop": "car_repair"
  }
},
{
  "_id": {
    "$oid": "69882c2570b1561c98e899f2"
  },
  "name": "Jay Nepal Motorcycle Workshop",
  "lat": 28.2073067,
  "lng": 83.965825,
  "district": null,
  "city": null,
  "source": "OpenStreetMap",
  "osmId": {
    "$numberLong": "4062776078"
  },
  "tags": {
    "name": "Jay Nepal Motorcycle Workshop",
    "name:ne": "जय नेपाल मोटर साईकल वोर्कशप",
    "shop": "car_repair"
  }
},
{
  "_id": {
    "$oid": "69882c2570b1561c98e899f3"
  },
  "name": "Prajapati Motor Parts",
  "lat": 27.6661888,
  "lng": 85.4355275,
  "district": null,
  "city": null,
  "source": "OpenStreetMap",
  "osmId": {
    "$numberLong": "4144258294"
  },
  "tags": {
    "addr:street": "Jagati",
    "internet_access": "wlan",
    "name": "Prajapati Motor Parts",
    "opening_hours": "Mo-Su 07:30-20:00",
    "phone": "016614302",
    "shop": "car_repair"
  }
},
{
  "_id": {
    "$oid": "69882c2570b1561c98e899f4"
  },
  "name": "Raja Automobiles",
  "lat": 28.2199122,
  "lng": 83.9910431,
  "district": null,
  "city": null,
  "source": "OpenStreetMap",
  "osmId": {
    "$numberLong": "4182894377"
  },
  "tags": {
    "name": "Raja Automobiles",
    "name:ne": "राजा अटो-मोबाईलस्",
    "shop": "car_parts"
  }
},
{
  "_id": {
    "$oid": "69882c2570b1561c98e899f5"
  },
  "name": "The Car Decor",
  "lat": 28.2183002,
  "lng": 83.9905154,
  "district": null,
  "city": "Pokhara",
  "source": "OpenStreetMap",
  "osmId": {
    "$numberLong": "4183005746"
  },
  "tags": {
    "addr:city": "Pokhara",
    "addr:street": "Naya Bazar",
    "name": "The Car Decor",
    "name:ne": "कार डेकोर",
    "shop": "car_parts"
  }
},
{
  "_id": {
    "$oid": "69882c2570b1561c98e899f6"
  },
  "name": "Rakshanda Traders",
  "lat": 28.2059871,
  "lng": 83.9970385,
  "district": null,
  "city": null,
  "source": "OpenStreetMap",
  "osmId": {
    "$numberLong": "4225166645"
  },
  "tags": {
    "name": "Rakshanda Traders",
    "name:ne": "रक्सन्दा ट्रेडस्",
    "shop": "car_parts"
  }
},
{
  "_id": {
    "$oid": "69882c2570b1561c98e899f7"
  },
  "name": "Unnamed Garage",
  "lat": 28.212084,
  "lng": 83.9998415,
  "district": null,
  "city": null,
  "source": "OpenStreetMap",
  "osmId": {
    "$numberLong": "4225182398"
  },
  "tags": {
    "note": "Motorcycle",
    "repair": "yes",
    "shop": "car_repair"
  }
},
{
  "_id": {
    "$oid": "69882c2570b1561c98e899f8"
  },
  "name": "Gorkhali traders",
  "lat": 28.2055543,
  "lng": 83.9992947,
  "district": null,
  "city": null,
  "source": "OpenStreetMap",
  "osmId": {
    "$numberLong": "4225192791"
  },
  "tags": {
    "name": "Gorkhali traders",
    "name:ne": "गोर्खाली ट्रेडर्स",
    "shop": "car_parts"
  }
},
{
  "_id": {
    "$oid": "69882c2570b1561c98e899f9"
  },
  "name": "Uppallachaur Auto Parts & Workshop",
  "lat": 28.2751837,
  "lng": 83.5989766,
  "district": null,
  "city": null,
  "source": "OpenStreetMap",
  "osmId": {
    "$numberLong": "4265727357"
  },
  "tags": {
    "addr:street": "Uppallachour",
    "name": "Uppallachaur Auto Parts & Workshop",
    "shop": "car_repair"
  }
},
{
  "_id": {
    "$oid": "69882c2570b1561c98e899fa"
  },
  "name": "Dynamic auto",
  "lat": 27.6914137,
  "lng": 85.3916946,
  "district": null,
  "city": null,
  "source": "OpenStreetMap",
  "osmId": {
    "$numberLong": "4269501092"
  },
  "tags": {
    "name": "Dynamic auto",
    "shop": "car_repair"
  }
},
{
  "_id": {
    "$oid": "69882c2570b1561c98e899fb"
  },
  "name": "thimi garage",
  "lat": 27.6737419,
  "lng": 85.3873546,
  "district": null,
  "city": null,
  "source": "OpenStreetMap",
  "osmId": {
    "$numberLong": "4275938489"
  },
  "tags": {
    "name": "thimi garage",
    "shop": "car_repair"
  }
},
{
  "_id": {
    "$oid": "69882c2570b1561c98e899fc"
  },
  "name": "Monsoon Motorcycle workshop",
  "lat": 28.2115815,
  "lng": 83.980753,
  "district": null,
  "city": null,
  "source": "OpenStreetMap",
  "osmId": {
    "$numberLong": "4296155916"
  },
  "tags": {
    "name": "Monsoon Motorcycle workshop",
    "name:ne": "मन्सुन मोटरसाइकल वोर्कसप",
    "shop": "car_repair"
  }
},
{
  "_id": {
    "$oid": "69882c2570b1561c98e899fd"
  },
  "name": "BISHAL",
  "lat": 26.6406249,
  "lng": 87.9813435,
  "district": null,
  "city": null,
  "source": "OpenStreetMap",
  "osmId": {
    "$numberLong": "4352018389"
  },
  "tags": {
    "addr:street": "महेन्द्र राज्मार्ग्",
    "name": "BISHAL",
    "name:en": "BIBEK KARKI HOME",
    "shop": "car_repair"
  }
},
{
  "_id": {
    "$oid": "69882c2570b1561c98e899fe"
  },
  "name": "Unnamed Garage",
  "lat": 27.7220717,
  "lng": 85.2884217,
  "district": null,
  "city": null,
  "source": "OpenStreetMap",
  "osmId": {
    "$numberLong": "4366042292"
  },
  "tags": {
    "addr:street": "Sano Bharyang",
    "name:en": "Sri Harati Auto Workshop",
    "phone": "4279020",
    "shop": "car_repair"
  }
},
{
  "_id": {
    "$oid": "69882c2570b1561c98e899ff"
  },
  "name": "Unnamed Garage",
  "lat": 27.6612146,
  "lng": 85.318407,
  "district": null,
  "city": null,
  "source": "OpenStreetMap",
  "osmId": {
    "$numberLong": "4395442889"
  },
  "tags": {
    "addr:street": "Mahalaxmisthan Road",
    "phone": "015171101",
    "shop": "car_repair"
  }
},
{
  "_id": {
    "$oid": "69882c2570b1561c98e89a00"
  },
  "name": "Unnamed Garage",
  "lat": 27.6738804,
  "lng": 85.2764698,
  "district": null,
  "city": null,
  "source": "OpenStreetMap",
  "osmId": {
    "$numberLong": "4405237443"
  },
  "tags": {
    "shop": "car_repair"
  }
},
{
  "_id": {
    "$oid": "69882c2570b1561c98e89a01"
  },
  "name": "Power Tillar Workshop",
  "lat": 28.5359358,
  "lng": 81.1162256,
  "district": null,
  "city": null,
  "source": "OpenStreetMap",
  "osmId": {
    "$numberLong": "4407710706"
  },
  "tags": {
    "name": "Power Tillar Workshop",
    "shop": "car_repair"
  }
},
{
  "_id": {
    "$oid": "69882c2570b1561c98e89a02"
  },
  "name": "Unnamed Garage",
  "lat": 27.6786071,
  "lng": 85.3432138,
  "district": null,
  "city": null,
  "source": "OpenStreetMap",
  "osmId": {
    "$numberLong": "4427429389"
  },
  "tags": {
    "internet_access": "wlan",
    "name:en": "Kaizen Auto Care Pvt. Ltd.",
    "phone": "+97714602541",
    "shop": "car_repair"
  }
},
{
  "_id": {
    "$oid": "69882c2570b1561c98e89a03"
  },
  "name": "Unnamed Garage",
  "lat": 27.6969941,
  "lng": 85.3509708,
  "district": null,
  "city": null,
  "source": "OpenStreetMap",
  "osmId": {
    "$numberLong": "4428728259"
  },
  "tags": {
    "name:en": "Hyundai Service Centre",
    "shop": "car_repair",
    "toilets:wheelchair": "no",
    "wheelchair": "yes"
  }
},
{
  "_id": {
    "$oid": "69882c2570b1561c98e89a04"
  },
  "name": "Unnamed Garage",
  "lat": 27.6838438,
  "lng": 85.3276432,
  "district": null,
  "city": null,
  "source": "OpenStreetMap",
  "osmId": {
    "$numberLong": "4448589493"
  },
  "tags": {
    "name:en": "auto home pvt.ltd",
    "shop": "car_repair"
  }
},
{
  "_id": {
    "$oid": "69882c2570b1561c98e89a05"
  },
  "name": "Unnamed Garage",
  "lat": 27.6840576,
  "lng": 85.3267145,
  "district": null,
  "city": null,
  "source": "OpenStreetMap",
  "osmId": {
    "$numberLong": "4448589791"
  },
  "tags": {
    "name:en": "auto home pvt.ltd",
    "shop": "car_repair"
  }
},
{
  "_id": {
    "$oid": "69882c2570b1561c98e89a06"
  },
  "name": "Unnamed Garage",
  "lat": 27.6742296,
  "lng": 85.3154865,
  "district": null,
  "city": null,
  "source": "OpenStreetMap",
  "osmId": {
    "$numberLong": "4464465595"
  },
  "tags": {
    "addr:street": "Jawalakhel",
    "name:en": "manakamana auto workshop",
    "opening_hours": "24/7",
    "shop": "car_repair"
  }
},
{
  "_id": {
    "$oid": "69882c2570b1561c98e89a07"
  },
  "name": "Garima Auto Parts and Suppliers",
  "lat": 28.4323542,
  "lng": 81.0949831,
  "district": null,
  "city": null,
  "source": "OpenStreetMap",
  "osmId": {
    "$numberLong": "4517106260"
  },
  "tags": {
    "name": "Garima Auto Parts and Suppliers",
    "shop": "car_repair"
  }
},
{
  "_id": {
    "$oid": "69882c2570b1561c98e89a08"
  },
  "name": "Unnamed Garage",
  "lat": 27.6323922,
  "lng": 85.513636,
  "district": null,
  "city": null,
  "source": "OpenStreetMap",
  "osmId": {
    "$numberLong": "4533671490"
  },
  "tags": {
    "name:en": "Aashu electric work shop(Aashis)",
    "operator": "Aasis thapa",
    "phone": "9851000045",
    "shop": "car_repair"
  }
},
{
  "_id": {
    "$oid": "69882c2570b1561c98e89a09"
  },
  "name": "Unnamed Garage",
  "lat": 27.6281084,
  "lng": 85.534885,
  "district": null,
  "city": null,
  "source": "OpenStreetMap",
  "osmId": {
    "$numberLong": "4537066789"
  },
  "tags": {
    "shop": "car_repair"
  }
},
{
  "_id": {
    "$oid": "69882c2570b1561c98e89a0a"
  },
  "name": "Unnamed Garage",
  "lat": 27.6281768,
  "lng": 85.5349874,
  "district": null,
  "city": null,
  "source": "OpenStreetMap",
  "osmId": {
    "$numberLong": "4537066889"
  },
  "tags": {
    "shop": "car_repair"
  }
},
{
  "_id": {
    "$oid": "69882c2570b1561c98e89a0b"
  },
  "name": "Unnamed Garage",
  "lat": 27.6323495,
  "lng": 85.5138653,
  "district": null,
  "city": null,
  "source": "OpenStreetMap",
  "osmId": {
    "$numberLong": "4551889691"
  },
  "tags": {
    "name:en": "Amulya shop",
    "shop": "car_parts"
  }
},
{
  "_id": {
    "$oid": "69882c2570b1561c98e89a0c"
  },
  "name": "Unnamed Garage",
  "lat": 27.6323414,
  "lng": 85.5139793,
  "district": null,
  "city": null,
  "source": "OpenStreetMap",
  "osmId": {
    "$numberLong": "4551895692"
  },
  "tags": {
    "shop": "car_repair"
  }
},
{
  "_id": {
    "$oid": "69882c2570b1561c98e89a0d"
  },
  "name": "Unnamed Garage",
  "lat": 27.6326404,
  "lng": 85.5166484,
  "district": null,
  "city": null,
  "source": "OpenStreetMap",
  "osmId": {
    "$numberLong": "4560379395"
  },
  "tags": {
    "shop": "car_repair"
  }
},
{
  "_id": {
    "$oid": "69882c2570b1561c98e89a0e"
  },
  "name": "Unnamed Garage",
  "lat": 27.6321576,
  "lng": 85.5155351,
  "district": null,
  "city": null,
  "source": "OpenStreetMap",
  "osmId": {
    "$numberLong": "4560413292"
  },
  "tags": {
    "shop": "car_parts"
  }
},
{
  "_id": {
    "$oid": "69882c2570b1561c98e89a0f"
  },
  "name": "Unnamed Garage",
  "lat": 27.6322202,
  "lng": 85.5151235,
  "district": null,
  "city": null,
  "source": "OpenStreetMap",
  "osmId": {
    "$numberLong": "4562201489"
  },
  "tags": {
    "name:en": "Suzuki Bike service centre",
    "shop": "car_repair"
  }
},
{
  "_id": {
    "$oid": "69882c2570b1561c98e89a10"
  },
  "name": "Unnamed Garage",
  "lat": 27.3811413,
  "lng": 86.0578399,
  "district": null,
  "city": null,
  "source": "OpenStreetMap",
  "osmId": {
    "$numberLong": "4567949189"
  },
  "tags": {
    "addr:street": "Manthali",
    "internet_access": "wlan",
    "name:en": "Sunira Formula Auto Solution",
    "opening_hours": "Mo-Su 07:00-07:00",
    "operator": "Anil Karmacharya",
    "phone": "+97748540464",
    "shop": "car_repair"
  }
},
{
  "_id": {
    "$oid": "69882c2570b1561c98e89a11"
  },
  "name": "Unnamed Garage",
  "lat": 27.6316509,
  "lng": 85.5152557,
  "district": null,
  "city": null,
  "source": "OpenStreetMap",
  "osmId": {
    "$numberLong": "4574557790"
  },
  "tags": {
    "shop": "car_repair"
  }
},
{
  "_id": {
    "$oid": "69882c2570b1561c98e89a12"
  },
  "name": "Unnamed Garage",
  "lat": 27.7208059,
  "lng": 85.3001783,
  "district": null,
  "city": null,
  "source": "OpenStreetMap",
  "osmId": {
    "$numberLong": "4589353592"
  },
  "tags": {
    "addr:street": "Indrayeni Sadak",
    "name:en": "Ram krishna motorcycle work shop",
    "shop": "car_repair"
  }
},
{
  "_id": {
    "$oid": "69882c2570b1561c98e89a13"
  },
  "name": "Unnamed Garage",
  "lat": 28.2012016,
  "lng": 84.010655,
  "district": null,
  "city": null,
  "source": "OpenStreetMap",
  "osmId": {
    "$numberLong": "4591024397"
  },
  "tags": {
    "name:en": "Lekhnath Tractor and Auto Part",
    "shop": "car_repair"
  }
},
{
  "_id": {
    "$oid": "69882c2570b1561c98e89a14"
  },
  "name": "Unnamed Garage",
  "lat": 27.7318601,
  "lng": 85.3628908,
  "district": null,
  "city": null,
  "source": "OpenStreetMap",
  "osmId": {
    "$numberLong": "4591208289"
  },
  "tags": {
    "name:en": "Bhim motorcycle workshop",
    "shop": "car_repair"
  }
},
{
  "_id": {
    "$oid": "69882c2570b1561c98e89a15"
  },
  "name": "Unnamed Garage",
  "lat": 27.6832978,
  "lng": 84.4305469,
  "district": null,
  "city": null,
  "source": "OpenStreetMap",
  "osmId": {
    "$numberLong": "4596144490"
  },
  "tags": {
    "internet_access": "wlan",
    "name:en": "Pritam Bike workshop",
    "shop": "car_repair"
  }
},
{
  "_id": {
    "$oid": "69882c2570b1561c98e89a16"
  },
  "name": "Unnamed Garage",
  "lat": 28.2018759,
  "lng": 84.0125837,
  "district": null,
  "city": null,
  "source": "OpenStreetMap",
  "osmId": {
    "$numberLong": "4611363190"
  },
  "tags": {
    "name:en": "TOYOTA SERVICE CENTER",
    "shop": "car_repair"
  }
},
{
  "_id": {
    "$oid": "69882c2570b1561c98e89a17"
  },
  "name": "Unnamed Garage",
  "lat": 27.7168241,
  "lng": 85.304707,
  "district": null,
  "city": null,
  "source": "OpenStreetMap",
  "osmId": {
    "$numberLong": "4671502589"
  },
  "tags": {
    "name:de": "Sturzbügel und Schlosserei für Motorräder",
    "name:en": "Crash Bar and Metal Workshop for Motorbikes",
    "phone": "9849827372",
    "shop": "car_repair"
  }
},
{
  "_id": {
    "$oid": "69882c2570b1561c98e89a18"
  },
  "name": "Unnamed Garage",
  "lat": 27.6843718,
  "lng": 85.3435908,
  "district": null,
  "city": null,
  "source": "OpenStreetMap",
  "osmId": {
    "$numberLong": "4685501189"
  },
  "tags": {
    "name:en": "AlamDevi Auto Workshop",
    "opening_hours": "Su-Fr7:00-19:00",
    "phone": "9841291982",
    "shop": "car_repair"
  }
},
{
  "_id": {
    "$oid": "69882c2570b1561c98e89a19"
  },
  "name": "Unnamed Garage",
  "lat": 27.9046812,
  "lng": 85.1467769,
  "district": null,
  "city": null,
  "source": "OpenStreetMap",
  "osmId": {
    "$numberLong": "4693387998"
  },
  "tags": {
    "name:en": "RP SUPPLIERS",
    "shop": "car_repair"
  }
},
{
  "_id": {
    "$oid": "69882c2570b1561c98e89a1a"
  },
  "name": "Unnamed Garage",
  "lat": 27.9033,
  "lng": 85.1461259,
  "district": null,
  "city": null,
  "source": "OpenStreetMap",
  "osmId": {
    "$numberLong": "4693388091"
  },
  "tags": {
    "name:en": "TATA Motors",
    "shop": "car_repair"
  }
},
{
  "_id": {
    "$oid": "69882c2570b1561c98e89a1b"
  },
  "name": "Unnamed Garage",
  "lat": 27.4920656,
  "lng": 83.4725119,
  "district": null,
  "city": null,
  "source": "OpenStreetMap",
  "osmId": {
    "$numberLong": "4721463794"
  },
  "tags": {
    "name:en": "Bablu motor cycle",
    "opening_hours": "Mo-Su 09:00-18:00",
    "phone": "9811592209",
    "shop": "car_repair"
  }
},
{
  "_id": {
    "$oid": "69882c2570b1561c98e89a1c"
  },
  "name": "Unnamed Garage",
  "lat": 29.2723399,
  "lng": 82.1820607,
  "district": null,
  "city": null,
  "source": "OpenStreetMap",
  "osmId": {
    "$numberLong": "4733492421"
  },
  "tags": {
    "name:en": "Chandannath Auto Care",
    "shop": "car_repair"
  }
},
{
  "_id": {
    "$oid": "69882c2570b1561c98e89a1d"
  },
  "name": "Unnamed Garage",
  "lat": 27.7178708,
  "lng": 85.3407031,
  "district": null,
  "city": null,
  "source": "OpenStreetMap",
  "osmId": {
    "$numberLong": "4759439329"
  },
  "tags": {
    "name:en": "CHEVROLET Service",
    "shop": "car_repair"
  }
},
{
  "_id": {
    "$oid": "69882c2570b1561c98e89a1e"
  },
  "name": "Unnamed Garage",
  "lat": 27.7078933,
  "lng": 85.3217398,
  "district": null,
  "city": null,
  "source": "OpenStreetMap",
  "osmId": {
    "$numberLong": "4761809074"
  },
  "tags": {
    "addr:street": "Ram Shah Path (पुतलीसडक)",
    "name:en": "Prashant Auto Parts",
    "shop": "car_parts"
  }
},
{
  "_id": {
    "$oid": "69882c2570b1561c98e89a1f"
  },
  "name": "Unnamed Garage",
  "lat": 27.6289425,
  "lng": 83.4754899,
  "district": null,
  "city": null,
  "source": "OpenStreetMap",
  "osmId": {
    "$numberLong": "4762043878"
  },
  "tags": {
    "name:en": "service",
    "shop": "car_repair"
  }
},
{
  "_id": {
    "$oid": "69882c2570b1561c98e89a20"
  },
  "name": "Unnamed Garage",
  "lat": 27.9640763,
  "lng": 84.4091677,
  "district": null,
  "city": null,
  "source": "OpenStreetMap",
  "osmId": {
    "$numberLong": "4763498523"
  },
  "tags": {
    "name:en": "Bajaj",
    "shop": "car_repair"
  }
},
{
  "_id": {
    "$oid": "69882c2570b1561c98e89a21"
  },
  "name": "Unnamed Garage",
  "lat": 27.6863838,
  "lng": 85.2596035,
  "district": null,
  "city": null,
  "source": "OpenStreetMap",
  "osmId": {
    "$numberLong": "4772745427"
  },
  "tags": {
    "name:en": "TATA Motors",
    "shop": "car_repair"
  }
},
{
  "_id": {
    "$oid": "69882c2570b1561c98e89a22"
  },
  "name": "Unnamed Garage",
  "lat": 27.6874266,
  "lng": 85.2487618,
  "district": null,
  "city": null,
  "source": "OpenStreetMap",
  "osmId": {
    "$numberLong": "4773198159"
  },
  "tags": {
    "name:en": "Bharatbenz",
    "shop": "car_parts"
  }
},
{
  "_id": {
    "$oid": "69882c2570b1561c98e89a23"
  },
  "name": "Unnamed Garage",
  "lat": 27.7304726,
  "lng": 85.1378584,
  "district": null,
  "city": null,
  "source": "OpenStreetMap",
  "osmId": {
    "$numberLong": "4773213737"
  },
  "tags": {
    "name:en": "Rudrayani Auto Traders",
    "shop": "car_repair"
  }
},
{
  "_id": {
    "$oid": "69882c2570b1561c98e89a24"
  },
  "name": "Unnamed Garage",
  "lat": 28.0688209,
  "lng": 83.250886,
  "district": null,
  "city": null,
  "source": "OpenStreetMap",
  "osmId": {
    "$numberLong": "4775950721"
  },
  "tags": {
    "name:en": "car repair",
    "shop": "car_repair"
  }
},
{
  "_id": {
    "$oid": "69882c2570b1561c98e89a25"
  },
  "name": "Unnamed Garage",
  "lat": 27.9370311,
  "lng": 83.4340119,
  "district": null,
  "city": null,
  "source": "OpenStreetMap",
  "osmId": {
    "$numberLong": "4784604524"
  },
  "tags": {
    "shop": "car_repair"
  }
},
{
  "_id": {
    "$oid": "69882c2570b1561c98e89a26"
  },
  "name": "Unnamed Garage",
  "lat": 27.8293666,
  "lng": 83.538988,
  "district": null,
  "city": null,
  "source": "OpenStreetMap",
  "osmId": {
    "$numberLong": "4784619722"
  },
  "tags": {
    "shop": "car_repair"
  }
},
{
  "_id": {
    "$oid": "69882c2570b1561c98e89a27"
  },
  "name": "Unnamed Garage",
  "lat": 27.6832197,
  "lng": 85.3393746,
  "district": null,
  "city": null,
  "source": "OpenStreetMap",
  "osmId": {
    "$numberLong": "4790055025"
  },
  "tags": {
    "addr:street": "Sankhamool Koteshwor Bridge",
    "internet_access": "wlan",
    "name:en": "Fuzion Motorcycle workshop and re-condition house",
    "opening_hours": "Mo-Su 08:00-20:00",
    "operator": "Ishwor Tamang",
    "phone": "9813286513",
    "shop": "car_repair"
  }
},
{
  "_id": {
    "$oid": "69882c2570b1561c98e89a28"
  },
  "name": "Unnamed Garage",
  "lat": 27.6743141,
  "lng": 85.3956499,
  "district": null,
  "city": null,
  "source": "OpenStreetMap",
  "osmId": {
    "$numberLong": "4791782222"
  },
  "tags": {
    "addr:street": "Thimi, Braitar",
    "name:en": "Prakash Motorcycle Workshop & Re-Condition House",
    "operator": "Prakash Shrestha",
    "phone": "9813344090",
    "shop": "car_repair"
  }
},
{
  "_id": {
    "$oid": "69882c2570b1561c98e89a29"
  },
  "name": "Suhana Motor Workshop",
  "lat": 27.7170488,
  "lng": 85.3047544,
  "district": null,
  "city": null,
  "source": "OpenStreetMap",
  "osmId": {
    "$numberLong": "4792706550"
  },
  "tags": {
    "name": "Suhana Motor Workshop",
    "shop": "car_repair"
  }
},
{
  "_id": {
    "$oid": "69882c2570b1561c98e89a2a"
  },
  "name": "Unnamed Garage",
  "lat": 27.7011879,
  "lng": 85.3209978,
  "district": null,
  "city": null,
  "source": "OpenStreetMap",
  "osmId": {
    "$numberLong": "4797030821"
  },
  "tags": {
    "name:en": "honda",
    "shop": "car_repair"
  }
},
{
  "_id": {
    "$oid": "69882c2570b1561c98e89a2b"
  },
  "name": "Bishwokarma Auto Parts",
  "lat": 28.2186854,
  "lng": 83.9916392,
  "district": null,
  "city": null,
  "source": "OpenStreetMap",
  "osmId": {
    "$numberLong": "4841363702"
  },
  "tags": {
    "name": "Bishwokarma Auto Parts",
    "shop": "car_parts"
  }
},
{
  "_id": {
    "$oid": "69882c2570b1561c98e89a2c"
  },
  "name": "UDR Auto Engineering",
  "lat": 28.2185229,
  "lng": 83.9916352,
  "district": null,
  "city": null,
  "source": "OpenStreetMap",
  "osmId": {
    "$numberLong": "4841363703"
  },
  "tags": {
    "name": "UDR Auto Engineering",
    "shop": "car_repair"
  }
},
{
  "_id": {
    "$oid": "69882c2570b1561c98e89a2d"
  },
  "name": "Tashi Quick Autocare Centre",
  "lat": 27.7175823,
  "lng": 85.3037841,
  "district": null,
  "city": null,
  "source": "OpenStreetMap",
  "osmId": {
    "$numberLong": "4845134972"
  },
  "tags": {
    "name": "Tashi Quick Autocare Centre",
    "shop": "car_repair"
  }
},
{
  "_id": {
    "$oid": "69882c2570b1561c98e89a2e"
  },
  "name": "Unnamed Garage",
  "lat": 27.7136165,
  "lng": 85.3226787,
  "district": null,
  "city": null,
  "source": "OpenStreetMap",
  "osmId": {
    "$numberLong": "4889863121"
  },
  "tags": {
    "addr:street": "Naag Pokhari Sadak",
    "name:en": "New Star Motorcycle Workshop",
    "phone": "+9779851070656",
    "shop": "car_repair"
  }
},
{
  "_id": {
    "$oid": "69882c2570b1561c98e89a2f"
  },
  "name": "Auto Vision",
  "lat": 27.7026505,
  "lng": 85.3364423,
  "district": null,
  "city": null,
  "source": "OpenStreetMap",
  "osmId": {
    "$numberLong": "4890933121"
  },
  "tags": {
    "addr:street": "Setopul",
    "name": "Auto Vision",
    "name:en": "Auto Vision",
    "shop": "car_parts"
  }
},
{
  "_id": {
    "$oid": "69882c2570b1561c98e89a30"
  },
  "name": "Unnamed Garage",
  "lat": 27.7187949,
  "lng": 85.3709226,
  "district": null,
  "city": null,
  "source": "OpenStreetMap",
  "osmId": {
    "$numberLong": "4933971821"
  },
  "tags": {
    "name:en": "Sajjan Auto Care",
    "shop": "car_repair"
  }
},
{
  "_id": {
    "$oid": "69882c2570b1561c98e89a31"
  },
  "name": "Unnamed Garage",
  "lat": 27.6725718,
  "lng": 85.3348879,
  "district": null,
  "city": null,
  "source": "OpenStreetMap",
  "osmId": {
    "$numberLong": "4945306042"
  },
  "tags": {
    "name:en": "harati motorcycle workshop",
    "phone": "9841130463",
    "shop": "car_repair"
  }
},
{
  "_id": {
    "$oid": "69882c2570b1561c98e89a32"
  },
  "name": "Unnamed Garage",
  "lat": 27.7079276,
  "lng": 85.2816844,
  "district": null,
  "city": null,
  "source": "OpenStreetMap",
  "osmId": {
    "$numberLong": "4984759222"
  },
  "tags": {
    "addr:housenumber": "4",
    "addr:street": "Sitapaila Marg",
    "name:en": "Hero Honda Repair Shop",
    "opening_hours": "Su-Fr 09:00-18:00",
    "shop": "car_repair"
  }
},
{
  "_id": {
    "$oid": "69882c2570b1561c98e89a33"
  },
  "name": "Unnamed Garage",
  "lat": 27.7052073,
  "lng": 85.3372523,
  "district": null,
  "city": null,
  "source": "OpenStreetMap",
  "osmId": {
    "$numberLong": "4988311721"
  },
  "tags": {
    "name:en": "Guarage of Surendra सुरेन्द्रको कार मर्मत केन्द्र ७",
    "shop": "car_repair"
  }
},
{
  "_id": {
    "$oid": "69882c2570b1561c98e89a34"
  },
  "name": "Unnamed Garage",
  "lat": 27.6271982,
  "lng": 85.5294621,
  "district": null,
  "city": null,
  "source": "OpenStreetMap",
  "osmId": {
    "$numberLong": "5096857124"
  },
  "tags": {
    "name:en": "Body of lorry are made here.",
    "shop": "car_repair"
  }
},
{
  "_id": {
    "$oid": "69882c2570b1561c98e89a35"
  },
  "name": "Gurung Auto Decor",
  "lat": 28.2059558,
  "lng": 83.9971887,
  "district": null,
  "city": null,
  "source": "OpenStreetMap",
  "osmId": {
    "$numberLong": "5098329427"
  },
  "tags": {
    "name": "Gurung Auto Decor",
    "shop": "car_parts"
  }
},
{
  "_id": {
    "$oid": "69882c2570b1561c98e89a36"
  },
  "name": "Nepal Auto Deisel",
  "lat": 28.2067417,
  "lng": 83.9928965,
  "district": null,
  "city": null,
  "source": "OpenStreetMap",
  "osmId": {
    "$numberLong": "5102457347"
  },
  "tags": {
    "name": "Nepal Auto Deisel",
    "shop": "car_repair"
  }
},
{
  "_id": {
    "$oid": "69882c2570b1561c98e89a37"
  },
  "name": "Anil Automobiles",
  "lat": 28.2067249,
  "lng": 83.9930655,
  "district": null,
  "city": null,
  "source": "OpenStreetMap",
  "osmId": {
    "$numberLong": "5102457350"
  },
  "tags": {
    "name": "Anil Automobiles",
    "shop": "car_parts"
  }
},
{
  "_id": {
    "$oid": "69882c2570b1561c98e89a38"
  },
  "name": "Unnamed Garage",
  "lat": 27.9839491,
  "lng": 83.7390048,
  "district": null,
  "city": null,
  "source": "OpenStreetMap",
  "osmId": {
    "$numberLong": "5103527125"
  },
  "tags": {
    "addr:street": "waling-huwas",
    "email": "driveryk@yahoo.com",
    "internet_access": "wlan",
    "opening_hours": "24/7",
    "phone": "9856055034",
    "shop": "car_repair"
  }
},
{
  "_id": {
    "$oid": "69882c2570b1561c98e89a39"
  },
  "name": "Unnamed Garage",
  "lat": 26.6613618,
  "lng": 87.6810663,
  "district": null,
  "city": null,
  "source": "OpenStreetMap",
  "osmId": {
    "$numberLong": "5153437222"
  },
  "tags": {
    "name:en": "The New Pathivera Auto Parts & Repair",
    "shop": "car_repair"
  }
},
{
  "_id": {
    "$oid": "69882c2570b1561c98e89a3a"
  },
  "name": "Unnamed Garage",
  "lat": 27.6667952,
  "lng": 85.3089952,
  "district": null,
  "city": null,
  "source": "OpenStreetMap",
  "osmId": {
    "$numberLong": "5160163421"
  },
  "tags": {
    "addr:housenumber": "1",
    "addr:postcode": "44700",
    "addr:street": "Ring Road",
    "email": "info@landroversoverland.com",
    "internet_access": "wlan",
    "name:en": "Land Rovers Overland",
    "opening_hours": "Mo-Fr, Su 09:00-17:30; Sa 09:00-13:00",
    "operator": "Tek Bahadur Shankar",
    "phone": "+977015548621",
    "shop": "car_repair",
    "website": "http://www.landroversoverland.com"
  }
},
{
  "_id": {
    "$oid": "69882c2570b1561c98e89a3b"
  },
  "name": "Black Daimond Auto Parts",
  "lat": 27.9113535,
  "lng": 84.8894373,
  "district": null,
  "city": null,
  "source": "OpenStreetMap",
  "osmId": {
    "$numberLong": "5160417605"
  },
  "tags": {
    "contact:phone": "9841975497",
    "name": "Black Daimond Auto Parts",
    "name:ne": "ब्लैक डाईमण्ड अटो पार्ट",
    "shop": "car_parts"
  }
},
{
  "_id": {
    "$oid": "69882c2570b1561c98e89a3c"
  },
  "name": "Unnamed Garage",
  "lat": 26.6606226,
  "lng": 87.6938163,
  "district": null,
  "city": null,
  "source": "OpenStreetMap",
  "osmId": {
    "$numberLong": "5160870629"
  },
  "tags": {
    "name:en": "Honda service center",
    "shop": "car_repair"
  }
},
{
  "_id": {
    "$oid": "69882c2570b1561c98e89a3d"
  },
  "name": "Lamsal A to Z Auto Mechanical Udhoyg",
  "lat": 27.9127801,
  "lng": 84.8835871,
  "district": null,
  "city": null,
  "source": "OpenStreetMap",
  "osmId": {
    "$numberLong": "5186163648"
  },
  "tags": {
    "contact:phone": "9813547422",
    "name": "Lamsal A to Z Auto Mechanical Udhoyg",
    "shop": "car_repair"
  }
},
{
  "_id": {
    "$oid": "69882c2570b1561c98e89a3e"
  },
  "name": "Sadichhya Motor Parts",
  "lat": 27.9128583,
  "lng": 84.8839948,
  "district": null,
  "city": null,
  "source": "OpenStreetMap",
  "osmId": {
    "$numberLong": "5186163650"
  },
  "tags": {
    "contact:phone": "010520895",
    "name": "Sadichhya Motor Parts",
    "shop": "car_parts"
  }
},
{
  "_id": {
    "$oid": "69882c2570b1561c98e89a3f"
  },
  "name": "Unnamed Garage",
  "lat": 27.9664534,
  "lng": 84.4062618,
  "district": null,
  "city": null,
  "source": "OpenStreetMap",
  "osmId": {
    "$numberLong": "5234910023"
  },
  "tags": {
    "name:en": "Bike Workshop",
    "shop": "car_repair"
  }
},
{
  "_id": {
    "$oid": "69882c2570b1561c98e89a40"
  },
  "name": "Unnamed Garage",
  "lat": 27.9131309,
  "lng": 84.8813152,
  "district": null,
  "city": null,
  "source": "OpenStreetMap",
  "osmId": {
    "$numberLong": "5285446034"
  },
  "tags": {
    "name:en": "JuwalaMukhi Motor Parts",
    "shop": "car_parts"
  }
},
{
  "_id": {
    "$oid": "69882c2570b1561c98e89a41"
  },
  "name": "Unnamed Garage",
  "lat": 27.664002,
  "lng": 85.312516,
  "district": null,
  "city": null,
  "source": "OpenStreetMap",
  "osmId": {
    "$numberLong": "5301737824"
  },
  "tags": {
    "name:en": "Good luck car wash and repair",
    "shop": "car_repair"
  }
},
{
  "_id": {
    "$oid": "69882c2570b1561c98e89a42"
  },
  "name": "Unnamed Garage",
  "lat": 27.6305134,
  "lng": 83.4265492,
  "district": null,
  "city": null,
  "source": "OpenStreetMap",
  "osmId": {
    "$numberLong": "5333461422"
  },
  "tags": {
    "name:en": "Rajesh workshop",
    "shop": "car_repair"
  }
},
{
  "_id": {
    "$oid": "69882c2570b1561c98e89a43"
  },
  "name": "Mahendra Service Centre",
  "lat": 27.7240337,
  "lng": 85.3398736,
  "district": null,
  "city": null,
  "source": "OpenStreetMap",
  "osmId": {
    "$numberLong": "5337010922"
  },
  "tags": {
    "name": "Mahendra Service Centre",
    "shop": "car_repair"
  }
},
{
  "_id": {
    "$oid": "69882c2570b1561c98e89a44"
  },
  "name": "Unnamed Garage",
  "lat": 26.6598064,
  "lng": 87.5622759,
  "district": null,
  "city": null,
  "source": "OpenStreetMap",
  "osmId": {
    "$numberLong": "5360310421"
  },
  "tags": {
    "name:en": "BANTAWA CAR WASH",
    "shop": "car_repair"
  }
},
{
  "_id": {
    "$oid": "69882c2570b1561c98e89a45"
  },
  "name": "Unnamed Garage",
  "lat": 27.7186152,
  "lng": 85.3056415,
  "district": null,
  "city": null,
  "source": "OpenStreetMap",
  "osmId": {
    "$numberLong": "5386783221"
  },
  "tags": {
    "name:en": "suba servicing center",
    "shop": "car_repair"
  }
},
{
  "_id": {
    "$oid": "69882c2570b1561c98e89a46"
  },
  "name": "Shrstha Auto Parts",
  "lat": 28.0650583,
  "lng": 81.6245733,
  "district": null,
  "city": null,
  "source": "OpenStreetMap",
  "osmId": {
    "$numberLong": "5392206386"
  },
  "tags": {
    "name": "Shrstha Auto Parts",
    "shop": "car_parts"
  }
},
{
  "_id": {
    "$oid": "69882c2570b1561c98e89a47"
  },
  "name": "Purnagiri Auto Parts",
  "lat": 28.0709668,
  "lng": 81.6239876,
  "district": null,
  "city": null,
  "source": "OpenStreetMap",
  "osmId": {
    "$numberLong": "5398335960"
  },
  "tags": {
    "name": "Purnagiri Auto Parts",
    "shop": "car_parts"
  }
},
{
  "_id": {
    "$oid": "69882c2570b1561c98e89a48"
  },
  "name": "Bansha Auto Parts",
  "lat": 28.0699828,
  "lng": 81.6246783,
  "district": null,
  "city": null,
  "source": "OpenStreetMap",
  "osmId": {
    "$numberLong": "5398335961"
  },
  "tags": {
    "name": "Bansha Auto Parts",
    "shop": "car_parts"
  }
},
{
  "_id": {
    "$oid": "69882c2570b1561c98e89a49"
  },
  "name": "Vishwokarma Auto Workshop",
  "lat": 28.1003635,
  "lng": 81.6539016,
  "district": null,
  "city": null,
  "source": "OpenStreetMap",
  "osmId": {
    "$numberLong": "5401122525"
  },
  "tags": {
    "name": "Vishwokarma Auto Workshop",
    "shop": "car_repair"
  }
},
{
  "_id": {
    "$oid": "69882c2570b1561c98e89a4a"
  },
  "name": "Unnamed Garage",
  "lat": 26.7286139,
  "lng": 85.9112529,
  "district": null,
  "city": null,
  "source": "OpenStreetMap",
  "osmId": {
    "$numberLong": "5406277421"
  },
  "tags": {
    "name:en": "Wasim's Garage",
    "shop": "car_repair"
  }
},
{
  "_id": {
    "$oid": "69882c2570b1561c98e89a4b"
  },
  "name": "Bageshori Digital Service",
  "lat": 28.0844259,
  "lng": 81.6460723,
  "district": null,
  "city": null,
  "source": "OpenStreetMap",
  "osmId": {
    "$numberLong": "5424463007"
  },
  "tags": {
    "name": "Bageshori Digital Service",
    "opening_hours": "su-sa 06:00-18:00",
    "service": "repair",
    "shop": "car_repair",
    "wheelchair": "3"
  }
},
{
  "_id": {
    "$oid": "69882c2570b1561c98e89a4c"
  },
  "name": "S.D Baa Traders",
  "lat": 28.0901216,
  "lng": 81.6501895,
  "district": null,
  "city": "Nepalgunj",
  "source": "OpenStreetMap",
  "osmId": {
    "$numberLong": "5428965210"
  },
  "tags": {
    "addr:city": "Nepalgunj",
    "addr:street": "Ratna Rajmarg",
    "contact:phone": "9858025220;9848025230",
    "name": "S.D Baa Traders",
    "opening_hours": "8:00-18:00",
    "shop": "car_parts"
  }
},
{
  "_id": {
    "$oid": "69882c2570b1561c98e89a4d"
  },
  "name": "Guddu Auto Works",
  "lat": 28.088761,
  "lng": 81.649484,
  "district": null,
  "city": null,
  "source": "OpenStreetMap",
  "osmId": {
    "$numberLong": "5431506918"
  },
  "tags": {
    "contact:phone": "081-551381;9858021381;9858036350",
    "name": "Guddu Auto Works",
    "opening_hours": "24/7",
    "shop": "car_parts"
  }
},
{
  "_id": {
    "$oid": "69882c2570b1561c98e89a4e"
  },
  "name": "Nepal Motors and Lubricants",
  "lat": 28.084982,
  "lng": 81.6465966,
  "district": null,
  "city": null,
  "source": "OpenStreetMap",
  "osmId": {
    "$numberLong": "5431508875"
  },
  "tags": {
    "contact:phone": "9848131561;9861682018;9848253730",
    "name": "Nepal Motors and Lubricants",
    "opening_hours": "8:00-18:00",
    "shop": "car_parts"
  }
},
{
  "_id": {
    "$oid": "69882c2570b1561c98e89a4f"
  },
  "name": "Mahaan Motors",
  "lat": 28.0848483,
  "lng": 81.6464397,
  "district": null,
  "city": null,
  "source": "OpenStreetMap",
  "osmId": {
    "$numberLong": "5431508877"
  },
  "tags": {
    "contact:phone": "9858076665;9858076664",
    "name": "Mahaan Motors",
    "opening_hours": "8:00-19:00",
    "shop": "car_parts"
  }
},
{
  "_id": {
    "$oid": "69882c2570b1561c98e89a50"
  },
  "name": "Manakamana Motor Parts",
  "lat": 28.0844945,
  "lng": 81.6461192,
  "district": null,
  "city": null,
  "source": "OpenStreetMap",
  "osmId": {
    "$numberLong": "5431508880"
  },
  "tags": {
    "contact:phone": "081-551481",
    "name": "Manakamana Motor Parts",
    "opening_hours": "8:00-19:00",
    "shop": "car_parts"
  }
},
{
  "_id": {
    "$oid": "69882c2570b1561c98e89a51"
  },
  "name": "Ramesh workshop",
  "lat": 28.2544321,
  "lng": 83.9660932,
  "district": null,
  "city": null,
  "source": "OpenStreetMap",
  "osmId": {
    "$numberLong": "5433091022"
  },
  "tags": {
    "name": "Ramesh workshop",
    "opening_hours": "sunrise-sunset",
    "operator": "private",
    "service:vehicle:tyres": "yes",
    "shop": "car_repair",
    "wheelchair": "yes"
  }
},
{
  "_id": {
    "$oid": "69882c2570b1561c98e89a52"
  },
  "name": "New Bastola Motorcycle Workshop",
  "lat": 28.1423265,
  "lng": 84.0879205,
  "district": null,
  "city": null,
  "source": "OpenStreetMap",
  "osmId": {
    "$numberLong": "5458057177"
  },
  "tags": {
    "name": "New Bastola Motorcycle Workshop",
    "shop": "car_repair",
    "source": "2cpokhara"
  }
},
{
  "_id": {
    "$oid": "69882c2570b1561c98e89a53"
  },
  "name": "Nepal Auto Parts",
  "lat": 28.0609049,
  "lng": 81.6192173,
  "district": null,
  "city": null,
  "source": "OpenStreetMap",
  "osmId": {
    "$numberLong": "5487895581"
  },
  "tags": {
    "name": "Nepal Auto Parts",
    "shop": "car_parts"
  }
},
{
  "_id": {
    "$oid": "69882c2570b1561c98e89a54"
  },
  "name": "Annapurna Auto Engineers Pvt Ltd",
  "lat": 28.2127796,
  "lng": 83.9837416,
  "district": null,
  "city": null,
  "source": "OpenStreetMap",
  "osmId": {
    "$numberLong": "5508748320"
  },
  "tags": {
    "contact:phone": "061-521786",
    "name": "Annapurna Auto Engineers Pvt Ltd",
    "shop": "car_parts",
    "source": "2cpokhara"
  }
},
{
  "_id": {
    "$oid": "69882c2570b1561c98e89a55"
  },
  "name": "Som Seat Hood",
  "lat": 28.2114218,
  "lng": 83.9868025,
  "district": null,
  "city": null,
  "source": "OpenStreetMap",
  "osmId": {
    "$numberLong": "5521528102"
  },
  "tags": {
    "name": "Som Seat Hood",
    "shop": "car_parts",
    "source": "2cpokhara"
  }
},
{
  "_id": {
    "$oid": "69882c2570b1561c98e89a56"
  },
  "name": "Global Auto Land Pvt Ltd",
  "lat": 28.2114858,
  "lng": 83.9868308,
  "district": null,
  "city": null,
  "source": "OpenStreetMap",
  "osmId": {
    "$numberLong": "5521528104"
  },
  "tags": {
    "contact:phone": "061-526451",
    "name": "Global Auto Land Pvt Ltd",
    "shop": "car_parts",
    "source": "2cpokhara"
  }
},
{
  "_id": {
    "$oid": "69882c2570b1561c98e89a57"
  },
  "name": "Niyal Auto Engineering Workshop",
  "lat": 28.2116737,
  "lng": 83.986927,
  "district": null,
  "city": null,
  "source": "OpenStreetMap",
  "osmId": {
    "$numberLong": "5521528108"
  },
  "tags": {
    "contact:phone": "+977 61 527687",
    "name": "Niyal Auto Engineering Workshop",
    "shop": "car_parts",
    "source": "2cpokhara"
  }
},
{
  "_id": {
    "$oid": "69882c2570b1561c98e89a58"
  },
  "name": "Gadimai Impex Pvt Ltd",
  "lat": 28.2116911,
  "lng": 83.9869355,
  "district": null,
  "city": null,
  "source": "OpenStreetMap",
  "osmId": {
    "$numberLong": "5521528109"
  },
  "tags": {
    "contact:phone": "061-531855, 9856034170",
    "name": "Gadimai Impex Pvt Ltd",
    "shop": "car_parts",
    "source": "2cpokhara"
  }
},
{
  "_id": {
    "$oid": "69882c2570b1561c98e89a59"
  },
  "name": "Shubha Om Motor Parts",
  "lat": 28.2121574,
  "lng": 83.9872723,
  "district": null,
  "city": null,
  "source": "OpenStreetMap",
  "osmId": {
    "$numberLong": "5521528114"
  },
  "tags": {
    "brand": "mahindra",
    "contact:phone": "061-520184, 9846717928",
    "name": "Shubha Om Motor Parts",
    "shop": "car_parts",
    "source": "2cpokhara"
  }
},
{
  "_id": {
    "$oid": "69882c2570b1561c98e89a5a"
  },
  "name": "Bagwani Auto Sales",
  "lat": 28.2122805,
  "lng": 83.9873732,
  "district": null,
  "city": null,
  "source": "OpenStreetMap",
  "osmId": {
    "$numberLong": "5521528118"
  },
  "tags": {
    "contact:phone": "061-532532, 061-539719",
    "name": "Bagwani Auto Sales",
    "shop": "car_parts",
    "source": "2cpokhara"
  }
},
{
  "_id": {
    "$oid": "69882c2570b1561c98e89a5b"
  },
  "name": "Suzuki Auto Connection",
  "lat": 28.2123295,
  "lng": 83.9874194,
  "district": null,
  "city": null,
  "source": "OpenStreetMap",
  "osmId": {
    "$numberLong": "5521528119"
  },
  "tags": {
    "brand": "Suzuki",
    "contact:phone": "061-521971",
    "name": "Suzuki Auto Connection",
    "shop": "car_parts",
    "source": "2cpokhara"
  }
},
{
  "_id": {
    "$oid": "69882c2570b1561c98e89a5c"
  },
  "name": "Poudel Car Zone",
  "lat": 28.2124444,
  "lng": 83.9875056,
  "district": null,
  "city": null,
  "source": "OpenStreetMap",
  "osmId": {
    "$numberLong": "5543097154"
  },
  "tags": {
    "name": "Poudel Car Zone",
    "shop": "car_parts",
    "source": "2cpokhara"
  }
},
{
  "_id": {
    "$oid": "69882c2570b1561c98e89a5d"
  },
  "name": "Bishal Motor Parts",
  "lat": 28.2128806,
  "lng": 83.9878684,
  "district": null,
  "city": null,
  "source": "OpenStreetMap",
  "osmId": {
    "$numberLong": "5543097159"
  },
  "tags": {
    "contact:phone": "+977 9806028316",
    "name": "Bishal Motor Parts",
    "shop": "car_parts",
    "source": "2cpokhara"
  }
},
{
  "_id": {
    "$oid": "69882c2570b1561c98e89a5e"
  },
  "name": "Satguru Workshop",
  "lat": 28.2129426,
  "lng": 83.9879024,
  "district": null,
  "city": null,
  "source": "OpenStreetMap",
  "osmId": {
    "$numberLong": "5543097161"
  },
  "tags": {
    "name": "Satguru Workshop",
    "shop": "car_parts",
    "source": "2cpokhara"
  }
},
{
  "_id": {
    "$oid": "69882c2570b1561c98e89a5f"
  },
  "name": "Asma Enterprises",
  "lat": 28.2130153,
  "lng": 83.9879728,
  "district": null,
  "city": null,
  "source": "OpenStreetMap",
  "osmId": {
    "$numberLong": "5543097162"
  },
  "tags": {
    "name": "Asma Enterprises",
    "shop": "car_parts",
    "source": "2cpokhara"
  }
},
{
  "_id": {
    "$oid": "69882c2570b1561c98e89a60"
  },
  "name": "Gadimai Automobiles",
  "lat": 28.2131789,
  "lng": 83.9880929,
  "district": null,
  "city": null,
  "source": "OpenStreetMap",
  "osmId": {
    "$numberLong": "5543097164"
  },
  "tags": {
    "contact:phone": "061-535315 , 9856020515",
    "name": "Gadimai Automobiles",
    "shop": "car_parts",
    "source": "2cpokhara"
  }
},
{
  "_id": {
    "$oid": "69882c2570b1561c98e89a61"
  },
  "name": "Car Fashion",
  "lat": 28.2133147,
  "lng": 83.9881584,
  "district": null,
  "city": null,
  "source": "OpenStreetMap",
  "osmId": {
    "$numberLong": "5543097165"
  },
  "tags": {
    "contact:phone": "061-532522, 9802828243",
    "name": "Car Fashion",
    "shop": "car_parts",
    "source": "2cpokhara"
  }
},
{
  "_id": {
    "$oid": "69882c2570b1561c98e89a62"
  },
  "name": "R.R. Trade",
  "lat": 28.2135478,
  "lng": 83.9883271,
  "district": null,
  "city": null,
  "source": "OpenStreetMap",
  "osmId": {
    "$numberLong": "5543097167"
  },
  "tags": {
    "contact:phone": "061-525859",
    "name": "R.R. Trade",
    "shop": "car_parts",
    "source": "2cpokhara"
  }
},
{
  "_id": {
    "$oid": "69882c2570b1561c98e89a63"
  },
  "name": "Paban Auto Parts",
  "lat": 28.2135745,
  "lng": 83.9883319,
  "district": null,
  "city": null,
  "source": "OpenStreetMap",
  "osmId": {
    "$numberLong": "5543097168"
  },
  "tags": {
    "contact:phone": "+977 61 534385",
    "name": "Paban Auto Parts",
    "shop": "car_parts",
    "source": "2cpokhara"
  }
},
{
  "_id": {
    "$oid": "69882c2570b1561c98e89a64"
  },
  "name": "International Trading Concern",
  "lat": 28.2138461,
  "lng": 83.9885697,
  "district": null,
  "city": null,
  "source": "OpenStreetMap",
  "osmId": {
    "$numberLong": "5543097173"
  },
  "tags": {
    "contact:phone": "061-523354",
    "name": "International Trading Concern",
    "shop": "car_parts",
    "source": "2cpokhara"
  }
},
{
  "_id": {
    "$oid": "69882c2570b1561c98e89a65"
  },
  "name": "Deepak Car Decore",
  "lat": 28.2138899,
  "lng": 83.9885989,
  "district": null,
  "city": null,
  "source": "OpenStreetMap",
  "osmId": {
    "$numberLong": "5543097174"
  },
  "tags": {
    "contact:phone": "9856012715, 9826172715",
    "name": "Deepak Car Decore",
    "shop": "car_parts",
    "source": "2cpokhara"
  }
},
{
  "_id": {
    "$oid": "69882c2570b1561c98e89a66"
  },
  "name": "Khan Tyre Marmat Kendra",
  "lat": 28.214139,
  "lng": 83.9886777,
  "district": null,
  "city": null,
  "source": "OpenStreetMap",
  "osmId": {
    "$numberLong": "5543097177"
  },
  "tags": {
    "name": "Khan Tyre Marmat Kendra",
    "shop": "car_parts",
    "source": "2cpokhara"
  }
},
{
  "_id": {
    "$oid": "69882c2570b1561c98e89a67"
  },
  "name": "Pritian Motor Parts",
  "lat": 28.2141978,
  "lng": 83.9886935,
  "district": null,
  "city": null,
  "source": "OpenStreetMap",
  "osmId": {
    "$numberLong": "5543097178"
  },
  "tags": {
    "contact:phone": "+977 9846200248",
    "name": "Pritian Motor Parts",
    "shop": "car_parts",
    "source": "2cpokhara"
  }
},
{
  "_id": {
    "$oid": "69882c2570b1561c98e89a68"
  },
  "name": "Bishwakarma Brake Lining Patching Work",
  "lat": 28.2142773,
  "lng": 83.9886833,
  "district": null,
  "city": null,
  "source": "OpenStreetMap",
  "osmId": {
    "$numberLong": "5543097179"
  },
  "tags": {
    "contact:phone": "061-524304",
    "name": "Bishwakarma Brake Lining Patching Work",
    "shop": "car_parts",
    "source": "2cpokhara"
  }
},
{
  "_id": {
    "$oid": "69882c2570b1561c98e89a69"
  },
  "name": "Champions Zine",
  "lat": 28.2145774,
  "lng": 83.9887032,
  "district": null,
  "city": null,
  "source": "OpenStreetMap",
  "osmId": {
    "$numberLong": "5543097182"
  },
  "tags": {
    "name": "Champions Zine",
    "shop": "car_parts",
    "source": "2cpokhara"
  }
},
{
  "_id": {
    "$oid": "69882c2570b1561c98e89a6a"
  },
  "name": "Shuva Goyal Traders",
  "lat": 28.2146822,
  "lng": 83.9887942,
  "district": null,
  "city": null,
  "source": "OpenStreetMap",
  "osmId": {
    "$numberLong": "5543097184"
  },
  "tags": {
    "contact:phone": "+977 9856034670",
    "name": "Shuva Goyal Traders",
    "shop": "car_parts",
    "source": "2cpokhara"
  }
},
{
  "_id": {
    "$oid": "69882c2570b1561c98e89a6b"
  },
  "name": "Jaya Krishna Auto Parts",
  "lat": 28.2148736,
  "lng": 83.9888244,
  "district": null,
  "city": null,
  "source": "OpenStreetMap",
  "osmId": {
    "$numberLong": "5543097186"
  },
  "tags": {
    "contact:phone": "9846163080",
    "name": "Jaya Krishna Auto Parts",
    "shop": "car_parts",
    "source": "2cpokhara"
  }
},
{
  "_id": {
    "$oid": "69882c2570b1561c98e89a6c"
  },
  "name": "Asian Autoparts",
  "lat": 28.2149089,
  "lng": 83.9888195,
  "district": null,
  "city": null,
  "source": "OpenStreetMap",
  "osmId": {
    "$numberLong": "5543097187"
  },
  "tags": {
    "name": "Asian Autoparts",
    "shop": "car_parts",
    "source": "2cpokhara"
  }
},
{
  "_id": {
    "$oid": "69882c2570b1561c98e89a6d"
  },
  "name": "Jaya Kalika Auto Parts",
  "lat": 28.2150627,
  "lng": 83.9887417,
  "district": null,
  "city": null,
  "source": "OpenStreetMap",
  "osmId": {
    "$numberLong": "5543097189"
  },
  "tags": {
    "contact:phone": "+977 9846063082",
    "name": "Jaya Kalika Auto Parts",
    "shop": "car_parts",
    "source": "2cpokhara"
  }
},
{
  "_id": {
    "$oid": "69882c2570b1561c98e89a6e"
  },
  "name": "Hima Auto Parts",
  "lat": 28.2157407,
  "lng": 83.989083,
  "district": null,
  "city": null,
  "source": "OpenStreetMap",
  "osmId": {
    "$numberLong": "5543097194"
  },
  "tags": {
    "name": "Hima Auto Parts",
    "shop": "car_parts",
    "source": "2cpokhara"
  }
},
{
  "_id": {
    "$oid": "69882c2570b1561c98e89a6f"
  },
  "name": "H.T. International",
  "lat": 28.2157792,
  "lng": 83.9890988,
  "district": null,
  "city": null,
  "source": "OpenStreetMap",
  "osmId": {
    "$numberLong": "5543097195"
  },
  "tags": {
    "contact:phone": "061-532882, 9856021517",
    "name": "H.T. International",
    "shop": "car_parts",
    "source": "2cpokhara"
  }
},
{
  "_id": {
    "$oid": "69882c2570b1561c98e89a70"
  },
  "name": "Kaski Seat Workshop",
  "lat": 28.2158465,
  "lng": 83.9891327,
  "district": null,
  "city": null,
  "source": "OpenStreetMap",
  "osmId": {
    "$numberLong": "5543097196"
  },
  "tags": {
    "name": "Kaski Seat Workshop",
    "shop": "car_parts",
    "source": "2cpokhara"
  }
},
{
  "_id": {
    "$oid": "69882c2570b1561c98e89a71"
  },
  "name": "Sanu Babu Seat Hood",
  "lat": 28.2161545,
  "lng": 83.9892334,
  "district": null,
  "city": null,
  "source": "OpenStreetMap",
  "osmId": {
    "$numberLong": "5543097200"
  },
  "tags": {
    "contact:phone": "9846348237, 9805823832",
    "name": "Sanu Babu Seat Hood",
    "shop": "car_parts",
    "source": "2cpokhara"
  }
},
{
  "_id": {
    "$oid": "69882c2570b1561c98e89a72"
  },
  "name": "B.R. Baniya Traders",
  "lat": 28.216394,
  "lng": 83.9890053,
  "district": null,
  "city": null,
  "source": "OpenStreetMap",
  "osmId": {
    "$numberLong": "5543097203"
  },
  "tags": {
    "contact:phone": "+977 61 229774;+977 9846333918",
    "name": "B.R. Baniya Traders",
    "shop": "car_parts",
    "source": "2cpokhara"
  }
},
{
  "_id": {
    "$oid": "69882c2570b1561c98e89a73"
  },
  "name": "Roj Car Decoration & Acessories",
  "lat": 28.2164752,
  "lng": 83.9892632,
  "district": null,
  "city": null,
  "source": "OpenStreetMap",
  "osmId": {
    "$numberLong": "5543097204"
  },
  "tags": {
    "contact:phone": "061-532431, 061- 4283123",
    "name": "Roj Car Decoration & Acessories",
    "shop": "car_parts",
    "source": "2cpokhara"
  }
},
{
  "_id": {
    "$oid": "69882c2570b1561c98e89a74"
  },
  "name": "Shova Auto Parts",
  "lat": 28.2166858,
  "lng": 83.9893912,
  "district": null,
  "city": null,
  "source": "OpenStreetMap",
  "osmId": {
    "$numberLong": "5543097210"
  },
  "tags": {
    "name": "Shova Auto Parts",
    "shop": "car_parts",
    "source": "2cpokhara"
  }
},
{
  "_id": {
    "$oid": "69882c2570b1561c98e89a75"
  },
  "name": "Surya Vinayak Motor Parts",
  "lat": 28.2167457,
  "lng": 83.9894191,
  "district": null,
  "city": null,
  "source": "OpenStreetMap",
  "osmId": {
    "$numberLong": "5543097211"
  },
  "tags": {
    "name": "Surya Vinayak Motor Parts",
    "shop": "car_parts",
    "source": "2cpokhara"
  }
},
{
  "_id": {
    "$oid": "69882c2570b1561c98e89a76"
  },
  "name": "Ravi Tube Tyre Marmat Kendra",
  "lat": 28.2169168,
  "lng": 83.9894737,
  "district": null,
  "city": null,
  "source": "OpenStreetMap",
  "osmId": {
    "$numberLong": "5543097213"
  },
  "tags": {
    "name": "Ravi Tube Tyre Marmat Kendra",
    "shop": "car_parts",
    "source": "2cpokhara"
  }
},
{
  "_id": {
    "$oid": "69882c2570b1561c98e89a77"
  },
  "name": "Palikhe Auto PArts",
  "lat": 28.2104507,
  "lng": 83.9860486,
  "district": null,
  "city": null,
  "source": "OpenStreetMap",
  "osmId": {
    "$numberLong": "5543181004"
  },
  "tags": {
    "contact:phone": "9846059066",
    "name": "Palikhe Auto PArts",
    "shop": "car_parts",
    "source": "2cpokhara"
  }
},
{
  "_id": {
    "$oid": "69882c2570b1561c98e89a78"
  },
  "name": "Happy Car Decor",
  "lat": 28.2136568,
  "lng": 83.9887789,
  "district": null,
  "city": null,
  "source": "OpenStreetMap",
  "osmId": {
    "$numberLong": "5543535028"
  },
  "tags": {
    "contact:phone": "9866009402",
    "name": "Happy Car Decor",
    "shop": "car_parts",
    "source": "2cpokhara"
  }
},
{
  "_id": {
    "$oid": "69882c2570b1561c98e89a79"
  },
  "name": "Bataju Trading Concern",
  "lat": 28.213538,
  "lng": 83.9887223,
  "district": null,
  "city": null,
  "source": "OpenStreetMap",
  "osmId": {
    "$numberLong": "5543535029"
  },
  "tags": {
    "contact:phone": "061-521446, 9856020920",
    "name": "Bataju Trading Concern",
    "shop": "car_parts",
    "source": "2cpokhara"
  }
},
{
  "_id": {
    "$oid": "69882c2570b1561c98e89a7a"
  },
  "name": "Trishakti Motor Parts",
  "lat": 28.2131335,
  "lng": 83.9883892,
  "district": null,
  "city": null,
  "source": "OpenStreetMap",
  "osmId": {
    "$numberLong": "5543535030"
  },
  "tags": {
    "contact:phone": "061-531673",
    "name": "Trishakti Motor Parts",
    "shop": "car_parts",
    "source": "2cpokhara"
  }
},
{
  "_id": {
    "$oid": "69882c2570b1561c98e89a7b"
  },
  "name": "Star Genuine Auto Parts",
  "lat": 28.2176672,
  "lng": 83.9898435,
  "district": null,
  "city": null,
  "source": "OpenStreetMap",
  "osmId": {
    "$numberLong": "5544172864"
  },
  "tags": {
    "contact:phone": "061-527571",
    "name": "Star Genuine Auto Parts",
    "shop": "car_parts",
    "source": "2cpokhara"
  }
},
{
  "_id": {
    "$oid": "69882c2570b1561c98e89a7c"
  },
  "name": "Prabisha Accessories",
  "lat": 28.2184339,
  "lng": 83.9905766,
  "district": null,
  "city": null,
  "source": "OpenStreetMap",
  "osmId": {
    "$numberLong": "5544278181"
  },
  "tags": {
    "name": "Prabisha Accessories",
    "shop": "car_parts",
    "source": "2cpokhara"
  }
},
{
  "_id": {
    "$oid": "69882c2570b1561c98e89a7d"
  },
  "name": "Tulachan Auto Parts",
  "lat": 28.2164435,
  "lng": 83.9895715,
  "district": null,
  "city": null,
  "source": "OpenStreetMap",
  "osmId": {
    "$numberLong": "5544278186"
  },
  "tags": {
    "brand": "Tata",
    "contact:phone": "061-531279",
    "name": "Tulachan Auto Parts",
    "shop": "car_parts",
    "source": "2cpokhara"
  }
},
{
  "_id": {
    "$oid": "69882c2570b1561c98e89a7e"
  },
  "name": "Pokhara Seat Workshop",
  "lat": 28.2142703,
  "lng": 83.9889784,
  "district": null,
  "city": null,
  "source": "OpenStreetMap",
  "osmId": {
    "$numberLong": "5544278194"
  },
  "tags": {
    "contact:phone": "061-537392, 9856026276",
    "name": "Pokhara Seat Workshop",
    "shop": "car_parts",
    "source": "2cpokhara"
  }
},
{
  "_id": {
    "$oid": "69882c2570b1561c98e89a7f"
  },
  "name": "K Evergreen Auto Parts",
  "lat": 28.2140986,
  "lng": 83.9889501,
  "district": null,
  "city": null,
  "source": "OpenStreetMap",
  "osmId": {
    "$numberLong": "5544278196"
  },
  "tags": {
    "contact:phone": "061-534297, 9856034227",
    "name": "K Evergreen Auto Parts",
    "shop": "car_parts",
    "source": "2cpokhara"
  }
},
{
  "_id": {
    "$oid": "69882c2570b1561c98e89a80"
  },
  "name": "Three S Trade House",
  "lat": 28.213802,
  "lng": 83.9888972,
  "district": null,
  "city": null,
  "source": "OpenStreetMap",
  "osmId": {
    "$numberLong": "5544278197"
  },
  "tags": {
    "name": "Three S Trade House",
    "shop": "car_parts",
    "source": "2cpokhara"
  }
},
{
  "_id": {
    "$oid": "69882c2570b1561c98e89a81"
  },
  "name": "Aswin Auto Parts",
  "lat": 28.2409076,
  "lng": 83.9835959,
  "district": null,
  "city": null,
  "source": "OpenStreetMap",
  "osmId": {
    "$numberLong": "5552007308"
  },
  "tags": {
    "name": "Aswin Auto Parts",
    "shop": "car_repair"
  }
},
{
  "_id": {
    "$oid": "69882c2570b1561c98e89a82"
  },
  "name": "Bibas and Bishal Workshop",
  "lat": 28.2312421,
  "lng": 83.9830012,
  "district": null,
  "city": null,
  "source": "OpenStreetMap",
  "osmId": {
    "$numberLong": "5552008143"
  },
  "tags": {
    "name": "Bibas and Bishal Workshop",
    "shop": "car_repair"
  }
},
{
  "_id": {
    "$oid": "69882c2570b1561c98e89a83"
  },
  "name": "DN auto works and Painting",
  "lat": 28.2358147,
  "lng": 83.983427,
  "district": null,
  "city": null,
  "source": "OpenStreetMap",
  "osmId": {
    "$numberLong": "5571113304"
  },
  "tags": {
    "name": "DN auto works and Painting",
    "shop": "car_repair"
  }
},
{
  "_id": {
    "$oid": "69882c2570b1561c98e89a84"
  },
  "name": "Unnamed Garage",
  "lat": 27.6793479,
  "lng": 85.3438431,
  "district": null,
  "city": null,
  "source": "OpenStreetMap",
  "osmId": {
    "$numberLong": "5594895225"
  },
  "tags": {
    "name:en": "Garage",
    "shop": "car_repair"
  }
},
{
  "_id": {
    "$oid": "69882c2570b1561c98e89a85"
  },
  "name": "Unnamed Garage",
  "lat": 28.2628074,
  "lng": 83.9791144,
  "district": null,
  "city": null,
  "source": "OpenStreetMap",
  "osmId": {
    "$numberLong": "5614599330"
  },
  "tags": {
    "name:en": "Bike Repair",
    "opening_hours": "Mo-Su 09:00-18:00",
    "shop": "car_repair"
  }
},
{
  "_id": {
    "$oid": "69882c2570b1561c98e89a86"
  },
  "name": "Unnamed Garage",
  "lat": 27.6298145,
  "lng": 85.5260912,
  "district": null,
  "city": null,
  "source": "OpenStreetMap",
  "osmId": {
    "$numberLong": "5652033121"
  },
  "tags": {
    "addr:housenumber": "1141",
    "addr:postcode": "45200",
    "addr:street": "Araniko Raj Marga",
    "name:en": "Dhartimata Motor Parts",
    "opening_hours": "Su-Fr 19:00-18:00; Sa 07:00-12:00",
    "operator": "Shanti Ratna Shakya",
    "phone": "011662029",
    "shop": "car_parts"
  }
},
{
  "_id": {
    "$oid": "69882c2570b1561c98e89a87"
  },
  "name": "Unnamed Garage",
  "lat": 27.2284604,
  "lng": 85.9146899,
  "district": null,
  "city": null,
  "source": "OpenStreetMap",
  "osmId": {
    "$numberLong": "5675916225"
  },
  "tags": {
    "name:en": "United Motor Parts and Workshop",
    "shop": "car_repair"
  }
},
{
  "_id": {
    "$oid": "69882c2570b1561c98e89a88"
  },
  "name": "Unnamed Garage",
  "lat": 27.2211669,
  "lng": 85.9184757,
  "district": null,
  "city": null,
  "source": "OpenStreetMap",
  "osmId": {
    "$numberLong": "5675919325"
  },
  "tags": {
    "name:en": "New Auto Land",
    "shop": "car_repair"
  }
},
{
  "_id": {
    "$oid": "69882c2570b1561c98e89a89"
  },
  "name": "Tyres Repair",
  "lat": 27.6616037,
  "lng": 83.0383944,
  "district": null,
  "city": null,
  "source": "OpenStreetMap",
  "osmId": {
    "$numberLong": "5730635218"
  },
  "tags": {
    "name": "Tyres Repair",
    "shop": "car_repair"
  }
},
{
  "_id": {
    "$oid": "69882c2570b1561c98e89a8a"
  },
  "name": "Unnamed Garage",
  "lat": 27.6967302,
  "lng": 85.3177035,
  "district": null,
  "city": null,
  "source": "OpenStreetMap",
  "osmId": {
    "$numberLong": "5800335253"
  },
  "tags": {
    "shop": "car_repair"
  }
},
{
  "_id": {
    "$oid": "69882c2570b1561c98e89a8b"
  },
  "name": "Unnamed Garage",
  "lat": 27.7185827,
  "lng": 85.3406092,
  "district": null,
  "city": null,
  "source": "OpenStreetMap",
  "osmId": {
    "$numberLong": "5808094553"
  },
  "tags": {
    "addr:street": "Bhatkeko Pul",
    "name:en": "Bhatbhateni Auto Workshop",
    "opening_hours": "24/7",
    "shop": "car_repair"
  }
},
{
  "_id": {
    "$oid": "69882c2570b1561c98e89a8c"
  },
  "name": "Cars and Bike Repair",
  "lat": 28.1302658,
  "lng": 82.297249,
  "district": null,
  "city": null,
  "source": "OpenStreetMap",
  "osmId": {
    "$numberLong": "5815861946"
  },
  "tags": {
    "name": "Cars and Bike Repair",
    "shop": "car_repair"
  }
},
{
  "_id": {
    "$oid": "69882c2570b1561c98e89a8d"
  },
  "name": "Garage",
  "lat": 28.1304469,
  "lng": 82.2957341,
  "district": null,
  "city": null,
  "source": "OpenStreetMap",
  "osmId": {
    "$numberLong": "5815864075"
  },
  "tags": {
    "name": "Garage",
    "shop": "car_repair"
  }
},
{
  "_id": {
    "$oid": "69882c2570b1561c98e89a8e"
  },
  "name": "New Acharya Tyre Suppliers",
  "lat": 28.0394987,
  "lng": 82.4869865,
  "district": null,
  "city": null,
  "source": "OpenStreetMap",
  "osmId": {
    "$numberLong": "5824653578"
  },
  "tags": {
    "name": "New Acharya Tyre Suppliers",
    "shop": "car_repair"
  }
},
{
  "_id": {
    "$oid": "69882c2570b1561c98e89a8f"
  },
  "name": "Unnamed Garage",
  "lat": 27.7011157,
  "lng": 85.3361985,
  "district": null,
  "city": null,
  "source": "OpenStreetMap",
  "osmId": {
    "$numberLong": "5827047085"
  },
  "tags": {
    "addr:street": "Tanka Prasad Marga",
    "name:en": "Geo Parts",
    "opening_hours": "Su-Fr 10:30-17:30",
    "phone": "014478290",
    "shop": "car_parts"
  }
},
{
  "_id": {
    "$oid": "69882c2570b1561c98e89a90"
  },
  "name": "Unnamed Garage",
  "lat": 27.7133432,
  "lng": 85.3671526,
  "district": null,
  "city": null,
  "source": "OpenStreetMap",
  "osmId": {
    "$numberLong": "5863924585"
  },
  "tags": {
    "addr:street": "Serbeshwor Marga",
    "name:en": "Chaudhari Bike Workshop",
    "opening_hours": "Mo-Su 08:00-19:00",
    "phone": "9813528419",
    "shop": "car_repair"
  }
},
{
  "_id": {
    "$oid": "69882c2570b1561c98e89a91"
  },
  "name": "Utsav Maintenance",
  "lat": 27.7089343,
  "lng": 85.3310484,
  "district": null,
  "city": null,
  "source": "OpenStreetMap",
  "osmId": {
    "$numberLong": "5921949702"
  },
  "tags": {
    "name": "Utsav Maintenance",
    "phone": "9841386304",
    "shop": "car_repair"
  }
},
{
  "_id": {
    "$oid": "69882c2570b1561c98e89a92"
  },
  "name": "Recondition House, Shikhar Auto Enterprise",
  "lat": 27.7089553,
  "lng": 85.330451,
  "district": null,
  "city": null,
  "source": "OpenStreetMap",
  "osmId": {
    "$numberLong": "5921951319"
  },
  "tags": {
    "name": "Recondition House, Shikhar Auto Enterprise",
    "phone": "9841010146",
    "shop": "car_repair"
  }
},
{
  "_id": {
    "$oid": "69882c2570b1561c98e89a93"
  },
  "name": "Unnamed Garage",
  "lat": 27.6912722,
  "lng": 85.3250931,
  "district": null,
  "city": null,
  "source": "OpenStreetMap",
  "osmId": {
    "$numberLong": "6094139286"
  },
  "tags": {
    "name:en": "DOFSC workshop",
    "shop": "car_repair"
  }
},
{
  "_id": {
    "$oid": "69882c2570b1561c98e89a94"
  },
  "name": "Unnamed Garage",
  "lat": 27.1725491,
  "lng": 86.4023223,
  "district": null,
  "city": null,
  "source": "OpenStreetMap",
  "osmId": {
    "$numberLong": "6203090987"
  },
  "tags": {
    "shop": "car_repair"
  }
},
{
  "_id": {
    "$oid": "69882c2570b1561c98e89a95"
  },
  "name": "Unnamed Garage",
  "lat": 27.6875691,
  "lng": 83.1820985,
  "district": null,
  "city": null,
  "source": "OpenStreetMap",
  "osmId": {
    "$numberLong": "6333501085"
  },
  "tags": {
    "name:en": "kapilvastu autoland and workshop",
    "shop": "car_repair"
  }
},
{
  "_id": {
    "$oid": "69882c2570b1561c98e89a96"
  },
  "name": "Unnamed Garage",
  "lat": 27.7332279,
  "lng": 85.3401527,
  "district": null,
  "city": null,
  "source": "OpenStreetMap",
  "osmId": {
    "$numberLong": "6395466487"
  },
  "tags": {
    "name:en": "Garage chunudevi md autoworkshop",
    "shop": "car_repair"
  }
},
{
  "_id": {
    "$oid": "69882c2570b1561c98e89a97"
  },
  "name": "Prabesh Garage",
  "lat": 27.631175,
  "lng": 85.5164574,
  "district": null,
  "city": "Banepa",
  "source": "OpenStreetMap",
  "osmId": {
    "$numberLong": "6517096236"
  },
  "tags": {
    "addr:city": "Banepa",
    "addr:street": "Punyamati Mahadev Marga",
    "designation": "Car repair",
    "name": "Prabesh Garage",
    "shop": "car_repair"
  }
},
{
  "_id": {
    "$oid": "69882c2570b1561c98e89a98"
  },
  "name": "Unnamed Garage",
  "lat": 27.6879569,
  "lng": 85.2873252,
  "district": null,
  "city": null,
  "source": "OpenStreetMap",
  "osmId": {
    "$numberLong": "7092372785"
  },
  "tags": {
    "internet_access": "wlan",
    "name:en": "Avighna Auto Care",
    "opening_hours": "24/7",
    "phone": "9840070758",
    "shop": "car_repair"
  }
},
{
  "_id": {
    "$oid": "69882c2570b1561c98e89a99"
  },
  "name": "Unnamed Garage",
  "lat": 27.6848248,
  "lng": 85.3478421,
  "district": null,
  "city": null,
  "source": "OpenStreetMap",
  "osmId": {
    "$numberLong": "7103644687"
  },
  "tags": {
    "name:en": "Kamana Automobiles Pvt. Ltd",
    "shop": "car_repair"
  }
},
{
  "_id": {
    "$oid": "69882c2570b1561c98e89a9a"
  },
  "name": "Unnamed Garage",
  "lat": 27.7138468,
  "lng": 85.3085405,
  "district": null,
  "city": null,
  "source": "OpenStreetMap",
  "osmId": {
    "$numberLong": "7173980989"
  },
  "tags": {
    "name:ru": "Веломагаз и сервис",
    "shop": "car_repair"
  }
},
{
  "_id": {
    "$oid": "69882c2570b1561c98e89a9b"
  },
  "name": "Unnamed Garage",
  "lat": 27.6636837,
  "lng": 85.3293019,
  "district": null,
  "city": null,
  "source": "OpenStreetMap",
  "osmId": {
    "$numberLong": "7215803387"
  },
  "tags": {
    "addr:street": "Ring Road",
    "internet_access": "wlan",
    "name:en": "Gwarko",
    "phone": "9851229426",
    "shop": "car_repair"
  }
},
{
  "_id": {
    "$oid": "69882c2570b1561c98e89a9c"
  },
  "name": "Unnamed Garage",
  "lat": 27.718197,
  "lng": 85.3604969,
  "district": null,
  "city": null,
  "source": "OpenStreetMap",
  "osmId": {
    "$numberLong": "7242636185"
  },
  "tags": {
    "addr:postcode": "977",
    "addr:street": "Boudhadwar Marga",
    "internet_access": "wlan",
    "name:en": "Bishal Workshop",
    "opening_hours": "24/7",
    "operator": "Bishal Lama",
    "phone": "+9779851216373",
    "shop": "car_repair"
  }
},
{
  "_id": {
    "$oid": "69882c2570b1561c98e89a9d"
  },
  "name": "Unnamed Garage",
  "lat": 27.7484548,
  "lng": 85.3473993,
  "district": null,
  "city": null,
  "source": "OpenStreetMap",
  "osmId": {
    "$numberLong": "7311994186"
  },
  "tags": {
    "name:en": "Bike repair",
    "shop": "car_repair"
  }
},
{
  "_id": {
    "$oid": "69882c2570b1561c98e89a9e"
  },
  "name": "Unnamed Garage",
  "lat": 27.7504909,
  "lng": 85.3457149,
  "district": null,
  "city": null,
  "source": "OpenStreetMap",
  "osmId": {
    "$numberLong": "7350901785"
  },
  "tags": {
    "name:en": "Bike repair",
    "shop": "car_repair"
  }
},
{
  "_id": {
    "$oid": "69882c2570b1561c98e89a9f"
  },
  "name": "Auto Clinic",
  "lat": 27.7007408,
  "lng": 85.3729842,
  "district": null,
  "city": null,
  "source": "OpenStreetMap",
  "osmId": {
    "$numberLong": "7981637487"
  },
  "tags": {
    "name": "Auto Clinic",
    "shop": "car_repair",
    "wheelchair": "limited"
  }
},
{
  "_id": {
    "$oid": "69882c2570b1561c98e89aa0"
  },
  "name": "Shiva Service center",
  "lat": 27.6898417,
  "lng": 85.3302533,
  "district": null,
  "city": null,
  "source": "OpenStreetMap",
  "osmId": {
    "$numberLong": "8220016057"
  },
  "tags": {
    "name": "Shiva Service center",
    "service": "parts;repair;tyres",
    "shop": "car_repair"
  }
},
{
  "_id": {
    "$oid": "69882c2570b1561c98e89aa1"
  },
  "name": "Laxmi Auto Parts",
  "lat": 27.6905281,
  "lng": 85.3286128,
  "district": null,
  "city": null,
  "source": "OpenStreetMap",
  "osmId": {
    "$numberLong": "8220042471"
  },
  "tags": {
    "name": "Laxmi Auto Parts",
    "shop": "car_parts"
  }
},
{
  "_id": {
    "$oid": "69882c2570b1561c98e89aa2"
  },
  "name": "Unnamed Garage",
  "lat": 28.1306543,
  "lng": 84.4091437,
  "district": null,
  "city": null,
  "source": "OpenStreetMap",
  "osmId": {
    "$numberLong": "8247967918"
  },
  "tags": {
    "addr:street": "Sundarbazzar-Bhotewodar Road",
    "name:en": "Milanchowk",
    "shop": "car_repair"
  }
},
{
  "_id": {
    "$oid": "69882c2570b1561c98e89aa3"
  },
  "name": "Unnamed Garage",
  "lat": 27.6786888,
  "lng": 85.3026714,
  "district": null,
  "city": null,
  "source": "OpenStreetMap",
  "osmId": {
    "$numberLong": "8257664817"
  },
  "tags": {
    "name:en": "Go Ford sanepa",
    "shop": "car_parts"
  }
},
{
  "_id": {
    "$oid": "69882c2570b1561c98e89aa4"
  },
  "name": "Auto workshop",
  "lat": 28.9558262,
  "lng": 82.8907366,
  "district": null,
  "city": null,
  "source": "OpenStreetMap",
  "osmId": {
    "$numberLong": "8266471904"
  },
  "tags": {
    "name": "Auto workshop",
    "shop": "car_repair",
    "source": "yil2020"
  }
},
{
  "_id": {
    "$oid": "69882c2570b1561c98e89aa5"
  },
  "name": "Jasmin Auto works",
  "lat": 28.9537007,
  "lng": 82.8949998,
  "district": null,
  "city": null,
  "source": "OpenStreetMap",
  "osmId": {
    "$numberLong": "8266588135"
  },
  "tags": {
    "name": "Jasmin Auto works",
    "shop": "car_repair",
    "source": "yil2020"
  }
},
{
  "_id": {
    "$oid": "69882c2570b1561c98e89aa6"
  },
  "name": "Jhyakot Garage",
  "lat": 29.1259155,
  "lng": 82.5714277,
  "district": null,
  "city": null,
  "source": "OpenStreetMap",
  "osmId": {
    "$numberLong": "8306356898"
  },
  "tags": {
    "name": "Jhyakot Garage",
    "shop": "car_repair",
    "source": "yil2020"
  }
},
{
  "_id": {
    "$oid": "69882c2570b1561c98e89aa7"
  },
  "name": "Shahi Auto Parts",
  "lat": 29.2752336,
  "lng": 81.7267397,
  "district": null,
  "city": null,
  "source": "OpenStreetMap",
  "osmId": {
    "$numberLong": "8314206509"
  },
  "tags": {
    "name": "Shahi Auto Parts",
    "service": "parts",
    "shop": "car_repair",
    "source": "yil2020"
  }
},
{
  "_id": {
    "$oid": "69882c2570b1561c98e89aa8"
  },
  "name": "Unnamed Garage",
  "lat": 28.2170496,
  "lng": 83.9902813,
  "district": null,
  "city": null,
  "source": "OpenStreetMap",
  "osmId": {
    "$numberLong": "8386278217"
  },
  "tags": {
    "addr:street": "Shiva Mandir Marg",
    "name:en": "All Idea Auto Workshop",
    "opening_hours": "Mo-Su 07:00-18:00",
    "phone": "9846200492",
    "shop": "car_repair"
  }
},
{
  "_id": {
    "$oid": "69882c2570b1561c98e89aa9"
  },
  "name": "Unnamed Garage",
  "lat": 28.6285814,
  "lng": 82.4572046,
  "district": null,
  "city": null,
  "source": "OpenStreetMap",
  "osmId": {
    "$numberLong": "8389309929"
  },
  "tags": {
    "description": "Automobile service center.",
    "shop": "car_repair"
  }
},
{
  "_id": {
    "$oid": "69882c2570b1561c98e89aaa"
  },
  "name": "Unnamed Garage",
  "lat": 27.5898819,
  "lng": 85.516165,
  "district": null,
  "city": null,
  "source": "OpenStreetMap",
  "osmId": {
    "$numberLong": "8508860317"
  },
  "tags": {
    "name:en": "Garage",
    "shop": "car_repair"
  }
},
{
  "_id": {
    "$oid": "69882c2570b1561c98e89aab"
  },
  "name": "Pasa Motorcycle repair",
  "lat": 27.6742384,
  "lng": 85.3638929,
  "district": null,
  "city": null,
  "source": "OpenStreetMap",
  "osmId": {
    "$numberLong": "8512463591"
  },
  "tags": {
    "name": "Pasa Motorcycle repair",
    "service": "repair",
    "shop": "car_repair"
  }
},
{
  "_id": {
    "$oid": "69882c2570b1561c98e89aac"
  },
  "name": "Unnamed Garage",
  "lat": 28.8426279,
  "lng": 81.7124109,
  "district": null,
  "city": null,
  "source": "OpenStreetMap",
  "osmId": {
    "$numberLong": "8605992218"
  },
  "tags": {
    "addr:street": "Mid-hill highway",
    "internet_access": "wlan",
    "name:en": "Holiday Autoparts and workshop",
    "opening_hours": "24/7",
    "phone": "9848100467",
    "shop": "car_repair"
  }
},
{
  "_id": {
    "$oid": "69882c2570b1561c98e89aad"
  },
  "name": "Unnamed Garage",
  "lat": 27.5903449,
  "lng": 85.5175626,
  "district": null,
  "city": null,
  "source": "OpenStreetMap",
  "osmId": {
    "$numberLong": "8715277617"
  },
  "tags": {
    "name:en": "Garage",
    "shop": "car_repair"
  }
},
{
  "_id": {
    "$oid": "69882c2570b1561c98e89aae"
  },
  "name": "Manju Shree Banglamukhi Motor Workshop",
  "lat": 27.6651432,
  "lng": 85.3045057,
  "district": null,
  "city": null,
  "source": "OpenStreetMap",
  "osmId": {
    "$numberLong": "8733283392"
  },
  "tags": {
    "brand": "Bmanju",
    "image": "https://www.facebook.com/bmanju.workshop/",
    "name": "Manju Shree Banglamukhi Motor Workshop",
    "operator": "Bmanju Team",
    "phone": "+9779842689511",
    "shop": "car_repair"
  }
},
{
  "_id": {
    "$oid": "69882c2570b1561c98e89aaf"
  },
  "name": "Unnamed Garage",
  "lat": 28.7771907,
  "lng": 83.7166571,
  "district": null,
  "city": null,
  "source": "OpenStreetMap",
  "osmId": {
    "$numberLong": "9184290536"
  },
  "tags": {
    "shop": "car_repair"
  }
},
{
  "_id": {
    "$oid": "69882c2570b1561c98e89ab0"
  },
  "name": "Unnamed Garage",
  "lat": 27.6883014,
  "lng": 84.432817,
  "district": null,
  "city": null,
  "source": "OpenStreetMap",
  "osmId": {
    "$numberLong": "9231748017"
  },
  "tags": {
    "name:en": "Bike repair",
    "shop": "car_repair"
  }
},
{
  "_id": {
    "$oid": "69882c2570b1561c98e89ab1"
  },
  "name": "raddeka bade reparing center",
  "lat": 27.9136496,
  "lng": 84.8887697,
  "district": null,
  "city": "Nilkantha Municipality-3",
  "source": "OpenStreetMap",
  "osmId": {
    "$numberLong": "9245400717"
  },
  "tags": {
    "addr:city": "Nilkantha Municipality-3",
    "addr:housenumber": "3",
    "addr:street": "Dhading Besi Marga",
    "name": "raddeka bade reparing center",
    "shop": "car_repair"
  }
},
{
  "_id": {
    "$oid": "69882c2570b1561c98e89ab2"
  },
  "name": "Unnamed Garage",
  "lat": 27.6925434,
  "lng": 84.4254255,
  "district": null,
  "city": null,
  "source": "OpenStreetMap",
  "osmId": {
    "$numberLong": "9247349017"
  },
  "tags": {
    "name:en": "Car repair",
    "shop": "car_repair"
  }
},
{
  "_id": {
    "$oid": "69882c2570b1561c98e89ab3"
  },
  "name": "Unnamed Garage",
  "lat": 27.6884028,
  "lng": 84.4328456,
  "district": null,
  "city": null,
  "source": "OpenStreetMap",
  "osmId": {
    "$numberLong": "9310553217"
  },
  "tags": {
    "shop": "car_repair"
  }
},
{
  "_id": {
    "$oid": "69882c2570b1561c98e89ab4"
  },
  "name": "Unnamed Garage",
  "lat": 27.6859491,
  "lng": 83.4284882,
  "district": null,
  "city": null,
  "source": "OpenStreetMap",
  "osmId": {
    "$numberLong": "9317442218"
  },
  "tags": {
    "addr:street": "महेन्द्र राज्मार्ग्",
    "name:en": "Bhairab Auto Service",
    "shop": "car_repair"
  }
},
{
  "_id": {
    "$oid": "69882c2570b1561c98e89ab5"
  },
  "name": "Gear Shifter Nepal",
  "lat": 27.6795674,
  "lng": 85.3350177,
  "district": null,
  "city": null,
  "source": "OpenStreetMap",
  "osmId": {
    "$numberLong": "9407188809"
  },
  "tags": {
    "name": "Gear Shifter Nepal",
    "shop": "car_parts"
  }
},
{
  "_id": {
    "$oid": "69882c2570b1561c98e89ab6"
  },
  "name": "Unnamed Garage",
  "lat": 27.7176291,
  "lng": 85.3277507,
  "district": null,
  "city": null,
  "source": "OpenStreetMap",
  "osmId": {
    "$numberLong": "9425130717"
  },
  "tags": {
    "shop": "car_repair"
  }
},
{
  "_id": {
    "$oid": "69882c2570b1561c98e89ab7"
  },
  "name": "Honda",
  "lat": 27.7177691,
  "lng": 85.3279837,
  "district": null,
  "city": null,
  "source": "OpenStreetMap",
  "osmId": {
    "$numberLong": "9447489019"
  },
  "tags": {
    "brand": "Honda",
    "brand:wikidata": "Q9584",
    "name": "Honda",
    "shop": "car_repair"
  }
},
{
  "_id": {
    "$oid": "69882c2570b1561c98e89ab8"
  },
  "name": "Service Station (Vespa, Aprilla)",
  "lat": 27.7169218,
  "lng": 85.3340135,
  "district": null,
  "city": null,
  "source": "OpenStreetMap",
  "osmId": {
    "$numberLong": "9447489220"
  },
  "tags": {
    "name": "Service Station (Vespa, Aprilla)",
    "shop": "car_repair"
  }
},
{
  "_id": {
    "$oid": "69882c2570b1561c98e89ab9"
  },
  "name": "Auto Parts and Workshop",
  "lat": 27.5534954,
  "lng": 85.6464994,
  "district": null,
  "city": null,
  "source": "OpenStreetMap",
  "osmId": {
    "$numberLong": "9502426718"
  },
  "tags": {
    "addr:place": "Naubise",
    "name": "Auto Parts and Workshop",
    "name:ne": "अटो पाटर्स एण्ड वर्कशप",
    "opening_hours": "Mo-Su 08:00-18:00",
    "phone": "9808701792",
    "shop": "car_repair",
    "source": "Namobuddha open mapping 2022"
  }
},
{
  "_id": {
    "$oid": "69882c2570b1561c98e89aba"
  },
  "name": "Yuwa Motor Workshop",
  "lat": 27.5531809,
  "lng": 85.6476079,
  "district": null,
  "city": null,
  "source": "OpenStreetMap",
  "osmId": {
    "$numberLong": "9502426719"
  },
  "tags": {
    "addr:place": "naubeshe",
    "name": "Yuwa Motor Workshop",
    "name:ne": "युवा मोटर वर्कशप",
    "opening_hours": "Mo-Su 05:00-20:00",
    "phone": "9845647602",
    "shop": "car_repair",
    "source": "Namobuddha open mapping 2022"
  }
},
{
  "_id": {
    "$oid": "69882c2570b1561c98e89abb"
  },
  "name": "S.R Auto Workshop",
  "lat": 27.5630747,
  "lng": 85.6402498,
  "district": null,
  "city": null,
  "source": "OpenStreetMap",
  "osmId": {
    "$numberLong": "9502426720"
  },
  "tags": {
    "addr:place": "Bhakundebesi",
    "name": "S.R Auto Workshop",
    "phone": "9851187289",
    "shop": "car_repair",
    "source": "Namobuddha open mapping 2022"
  }
},
{
  "_id": {
    "$oid": "69882c2570b1561c98e89abc"
  },
  "name": "Chandishori Auto Workshop",
  "lat": 27.5582225,
  "lng": 85.6424528,
  "district": null,
  "city": null,
  "source": "OpenStreetMap",
  "osmId": {
    "$numberLong": "9502426721"
  },
  "tags": {
    "addr:place": "Bhakunde",
    "name": "Chandishori Auto Workshop",
    "name:ne": "चन्देश्वरि अटो वोर्क्सप",
    "opening_hours": "Mo-Su 07:00-20:00",
    "phone": "9845647670",
    "shop": "car_repair",
    "source": "Namobuddha open mapping 2022"
  }
},
{
  "_id": {
    "$oid": "69882c2570b1561c98e89abd"
  },
  "name": "Namobuddha Auto Parts Pvt.Ltd",
  "lat": 27.5579998,
  "lng": 85.6430227,
  "district": null,
  "city": null,
  "source": "OpenStreetMap",
  "osmId": {
    "$numberLong": "9502426722"
  },
  "tags": {
    "addr:place": "Bhakunde",
    "name": "Namobuddha Auto Parts Pvt.Ltd",
    "opening_hours": "Mo-Su 09:00-18:00",
    "phone": "9851238912",
    "shop": "car_parts",
    "source": "Namobuddha open mapping 2022"
  }
},
{
  "_id": {
    "$oid": "69882c2570b1561c98e89abe"
  },